{"type":"FeatureCollection","features":[{"type":"Feature","properties":{"Name":"Àrea 1 - Secundària/Batxillerat","description":"Justicia/Colón/Xàtiva/Alicante/Gibraltar/Vía del Ferrocarril/Giorgeta/Pérez Galdós/Cauce viejo del río/Justicia."},"geometry":{"type":"Polygon","coordinates":[[[-0.395809,39.4749159],[-0.382054,39.4559099],[-0.3807382,39.455284],[-0.3763525,39.4669419],[-0.3750618,39.4672381],[-0.3734285,39.4681634],[-0.37102,39.4697821],[-0.3693625,39.4715001],[-0.3680402,39.4724585],[-0.3673576,39.4726396],[-0.3672094,39.4728295],[-0.3674474,39.4730525],[-0.3713956,39.4771602],[-0.3750644,39.4790338],[-0.3803,39.4812862],[-0.3832403,39.4799427],[-0.3853002,39.4790814],[-0.3891626,39.4776239],[-0.395809,39.4749159]]]}},{"type":"Feature","properties":{"Name":"CENTRE PRIVAT NUESTRA SEÑORA DEL SOCORRO","description":"http://www.ceice.gva.es/es/web/centros-docentes/consulta-general?viewUrl162652993=/abc/i_guiadecentros/es/centro.asp&codi=46010164"},"geometry":{"type":"Point","coordinates":[-0.385853099999963,39.4654847]}},{"type":"Feature","properties":{"Name":"Colegio Inmaculado Corazón de María","description":"Informació del Centre: http://www.ceice.gva.es/es/web/centros-docentes/consulta-general?viewUrl162652993=/abc/i_guiadecentros/es/centro.asp&codi=46010243"},"geometry":{"type":"Point","coordinates":[-0.393460399999981,39.4741579]}},{"type":"Feature","properties":{"Name":"Colegio Gran Asociación","description":"Informació del Centre: http://www.ceice.gva.es/es/web/centros-docentes/consulta-general?viewUrl162652993=/abc/i_guiadecentros/es/centro.asp&codi=46009472"},"geometry":{"type":"Point","coordinates":[-0.377895500000022,39.479752]}},{"type":"Feature","properties":{"Name":"Real Colegio de las Escuelas Pías (PP. Escolapios) 46012136","description":"Guía de Centres Consultar su perfil: http://www.ceice.gva.es/es/web/centros-docentes/consulta-general?viewUrl162652993=/abc/i_guiadecentros/val/centro.asp&codi=46012136"},"geometry":{"type":"Point","coordinates":[-0.3822895,39.4738658]}},{"type":"Feature","properties":{"Name":"Colegio Sagrado Corazón","description":"Informació del Centre: http://www.ceice.gva.es/es/web/centros-docentes/consulta-general?viewUrl162652993=/abc/i_guiadecentros/es/centro.asp&codi=46009460"},"geometry":{"type":"Point","coordinates":[-0.374794400000042,39.478628]}},{"type":"Feature","properties":{"Name":"Colegio Jesús-María","description":"Informació del Centre: http://www.ceice.gva.es/es/web/centros-docentes/consulta-general?viewUrl162652993=/abc/i_guiadecentros/es/centro.asp&codi=46010221"},"geometry":{"type":"Point","coordinates":[-0.387674400000037,39.4730611]}},{"type":"Feature","properties":{"Name":"CENTRE PRIVAT D'EDUCACIÓ INFANTIL, PRIMÀRIA I SECUNDÀRIA\nESCOLÀPIES VALÈNCIA","description":"http://www.ceice.gva.es/es/web/centros-docentes/consulta-general?viewUrl162652993=/abc/i_guiadecentros/es/centro.asp&codi=46010231"},"geometry":{"type":"Point","coordinates":[-0.385845499999959,39.4710103]}},{"type":"Feature","properties":{"Name":"Centro Privado de Enseñanza San Pedro Pascual","description":"http://www.ceice.gva.es/es/web/centros-docentes/consulta-general?viewUrl162652993=/abc/i_guiadecentros/es/centro.asp&codi=46010255"},"geometry":{"type":"Point","coordinates":[-0.392686899999944,39.4734278]}},{"type":"Feature","properties":{"Name":"Centro Privado De Enseñanza Santo Tomás De Villanueva","description":"http://www.ceice.gva.es/es/web/centros-docentes/consulta-general?viewUrl162652993=/abc/i_guiadecentros/es/centro.asp&codi=46010127"},"geometry":{"type":"Point","coordinates":[-0.382588400000031,39.4649774]}},{"type":"Feature","properties":{"Name":"IES Lluís Vives","description":"http://www.ceice.gva.es/es/web/centros-docentes/consulta-general?viewUrl162652993=/abc/i_guiadecentros/es/centro.asp&codi=46012872"},"geometry":{"type":"Point","coordinates":[-0.377732,39.4681702]}},{"type":"Feature","properties":{"Name":"IES Barri del Carme","description":"http://www.ceice.gva.es/es/web/centros-docentes/consulta-general?viewUrl162652993=/abc/i_guiadecentros/es/centro.asp&codi=46020391"},"geometry":{"type":"Point","coordinates":[-0.3817596,39.479613]}},{"type":"Feature","properties":{"Name":"Instituto de Educación Secundaria Abastos","description":"http://www.ceice.gva.es/es/web/centros-docentes/consulta-general?viewUrl162652993=/abc/i_guiadecentros/es/centro.asp&codi=46025040"},"geometry":{"type":"Point","coordinates":[-0.3882149,39.4680183]}},{"type":"Feature","properties":{"Name":"Àrea 2-Secundària/Batxillerat","description":"Cauce viejo del río/límite de Mislata/Límite de Xirivella/Cauce nuevo del río/Campos Crespo/Pío XI/Cuenca/Pérez Galdós/Cauce viejo del río."},"geometry":{"type":"Polygon","coordinates":[[[-0.4128549,39.4631672],[-0.4151132,39.4615031],[-0.4135415,39.4596714],[-0.4057953,39.4489025],[-0.3981564,39.455066],[-0.3954546,39.4570344],[-0.3923278,39.4597091],[-0.3894458,39.4628588],[-0.3880737,39.4643715],[-0.395809,39.4749159],[-0.4056344,39.4731227],[-0.4080913,39.4727418],[-0.4109775,39.47251],[-0.4122596,39.4712511],[-0.4139535,39.4707335],[-0.4156902,39.4698846],[-0.4153562,39.4695822],[-0.4180538,39.469311],[-0.4207513,39.4693047],[-0.4171249,39.4683771],[-0.416213,39.467967],[-0.4152366,39.4673997],[-0.414437,39.4677449],[-0.4144742,39.4669141],[-0.4125102,39.4670248],[-0.4124445,39.4667493],[-0.4117551,39.4665461],[-0.4111919,39.4662557],[-0.4112026,39.465973],[-0.4126188,39.4658053],[-0.4124365,39.4642378],[-0.4128549,39.4631672]]]}},{"type":"Feature","properties":{"Name":"Colegio Jesús - María Fuensanta","description":"http://www.ceice.gva.es/es/web/centros-docentes/consulta-general?viewUrl162652993=/abc/i_guiadecentros/es/centro.asp&codi=46011922"},"geometry":{"type":"Point","coordinates":[-0.4090483,39.4653415]}},{"type":"Feature","properties":{"Name":"Colegio Hermes Sociedad Cooperativa Valenciana","description":"http://www.ceice.gva.es/es/web/centros-docentes/consulta-general?viewUrl162652993=/abc/i_guiadecentros/es/centro.asp&codi=46010772"},"geometry":{"type":"Point","coordinates":[-0.390749,39.462933]}},{"type":"Feature","properties":{"Name":"Colegio La Purisima Franciscanas","description":"http://www.ceice.gva.es/es/web/centros-docentes/consulta-general?viewUrl162652993=/abc/i_guiadecentros/es/centro.asp&codi=46010267"},"geometry":{"type":"Point","coordinates":[-0.404759099999978,39.4644873]}},{"type":"Feature","properties":{"Name":"Centro Privado De Educación Infantil Primaria Y Secundaria Esclavas De María","description":"http://www.ceice.gva.es/es/web/centros-docentes/consulta-general?viewUrl162652993=/abc/i_guiadecentros/es/centro.asp&codi=46010191"},"geometry":{"type":"Point","coordinates":[-0.392944,39.4654886]}},{"type":"Feature","properties":{"Name":"Colegio Pureza De Maria-Cid","description":"http://www.ceice.gva.es/es/web/centros-docentes/consulta-general?viewUrl162652993=/abc/i_guiadecentros/es/centro.asp&codi=46011879"},"geometry":{"type":"Point","coordinates":[-0.409450900000024,39.4702978]}},{"type":"Feature","properties":{"Name":"Centro Privado de Enseñanza Nuestra Señora de Fátima","description":"http://www.ceice.gva.es/es/web/centros-docentes/consulta-general?viewUrl162652993=/abc/i_guiadecentros/es/centro.asp&codi=46010553"},"geometry":{"type":"Point","coordinates":[-0.4045195,39.4681532]}},{"type":"Feature","properties":{"Name":"Som Escola Coop. (Infantil Primaria y ESO)","description":"http://www.ceice.gva.es/es/web/centros-docentes/consulta-general?viewUrl162652993=/abc/i_guiadecentros/es/centro.asp&codi=46011776"},"geometry":{"type":"Point","coordinates":[-0.406156,39.47146]}},{"type":"Feature","properties":{"Name":"Colegio Santa María","description":"http://www.ceice.gva.es/es/web/centros-docentes/consulta-general?viewUrl162652993=/abc/i_guiadecentros/es/centro.asp&codi=46011867"},"geometry":{"type":"Point","coordinates":[-0.406622700000071,39.466307]}},{"type":"Feature","properties":{"Name":"Colegio Claret Fuensanta","description":"http://www.ceice.gva.es/es/web/centros-docentes/consulta-general?viewUrl162652993=/abc/i_guiadecentros/es/centro.asp&codi=46011892"},"geometry":{"type":"Point","coordinates":[-0.40902,39.4654457]}},{"type":"Feature","properties":{"Name":"Instituto de Educación Secundaria Cid Campeador","description":"http://www.ceice.gva.es/es/web/centros-docentes/consulta-general?viewUrl162652993=/abc/i_guiadecentros/es/centro.asp&codi=46012987"},"geometry":{"type":"Point","coordinates":[-0.3995238,39.4655803]}},{"type":"Feature","properties":{"Name":"Instituto de Educación Secundaria Ies Número 26","description":"http://www.ceice.gva.es/es/web/centros-docentes/consulta-general?viewUrl162652993=/abc/i_guiadecentros/es/centro.asp&codi=46018059"},"geometry":{"type":"Point","coordinates":[-0.411377300000026,39.4644571]}},{"type":"Feature","properties":{"Name":"IES Patraix - Vicenta Ferrer Escrivà","description":"http://www.ceice.gva.es/es/web/centros-docentes/consulta-general?viewUrl162652993=/abc/i_guiadecentros/es/centro.asp&codi=46022944"},"geometry":{"type":"Point","coordinates":[-0.396393699999976,39.4606787]}},{"type":"Feature","properties":{"Name":"Àrea 5 - Secundària/Batxillerat","description":"Cauce viejo del río/Eduardo Boscà/ Cardenal Benlloch/Clariano/Palancia/Avda. Cataluña/Límite de Alboraia/Alfahuir/Cauce viejo del río. Inclou edifici de Policia Autonòmica i Palau de la Música."},"geometry":{"type":"Polygon","coordinates":[[[-0.3498941,39.4890851],[-0.3510148,39.490877],[-0.3529938,39.4920065],[-0.3560079,39.4939011],[-0.35664,39.4943051],[-0.3619771,39.4916755],[-0.3640516,39.4905215],[-0.3662118,39.4892349],[-0.3671851,39.4888146],[-0.3678717,39.4882848],[-0.3690038,39.4874095],[-0.3708012,39.4858487],[-0.3736228,39.4810294],[-0.3742932,39.4810584],[-0.3747679,39.480572],[-0.3717127,39.478464],[-0.3686441,39.4766587],[-0.3677001,39.4762115],[-0.3616919,39.4687081],[-0.3595247,39.4641196],[-0.3587951,39.4632747],[-0.3557052,39.4692465],[-0.3531304,39.4745221],[-0.3520184,39.4771734],[-0.3546871,39.4779601],[-0.3538644,39.479458],[-0.3523121,39.4805915],[-0.3518756,39.4819568],[-0.3508312,39.4852807],[-0.3502339,39.4871498],[-0.3498941,39.4890851]]]}},{"type":"Feature","properties":{"Name":"IES Benlliure","description":"http://www.ceice.gva.es/es/web/centros-docentes/consulta-general?viewUrl162652993=/abc/i_guiadecentros/es/centro.asp&codi=46013062"},"geometry":{"type":"Point","coordinates":[-0.3694514,39.4832107]}},{"type":"Feature","properties":{"Name":"IES Francesc Ferrer i Guàrdia Benimaclet","description":"http://www.ceice.gva.es/es/web/centros-docentes/consulta-general?viewUrl162652993=/abc/i_guiadecentros/es/centro.asp&codi=46019571"},"geometry":{"type":"Point","coordinates":[-0.355015,39.4819796]}},{"type":"Feature","properties":{"Name":"IES Rascanya Antonio Cañuelo","description":"http://www.ceice.gva.es/es/web/centros-docentes/consulta-general?viewUrl162652993=/abc/i_guiadecentros/es/centro.asp&codi=46025507"},"geometry":{"type":"Point","coordinates":[-0.360537199999953,39.494429]}},{"type":"Feature","properties":{"Name":"Colegio Claret Valencia Benimaclet","description":"http://www.ceice.gva.es/es/web/centros-docentes/consulta-general?viewUrl162652993=/abc/i_guiadecentros/es/centro.asp&codi=46011028"},"geometry":{"type":"Point","coordinates":[-0.361769800000047,39.4840252]}},{"type":"Feature","properties":{"Name":"Colegio Guadalaviar","description":"http://www.ceice.gva.es/es/web/centros-docentes/consulta-general?viewUrl162652993=/abc/i_guiadecentros/es/centro.asp&codi=46011089"},"geometry":{"type":"Point","coordinates":[-0.355533499999979,39.4756551]}},{"type":"Feature","properties":{"Name":"Colegio Nuestra Señora del Pilar - Marianistas Valencia","description":"http://www.ceice.gva.es/es/web/centros-docentes/consulta-general?viewUrl162652993=/abc/i_guiadecentros/es/centro.asp&codi=46011119"},"geometry":{"type":"Point","coordinates":[-0.35503,39.4766199]}},{"type":"Feature","properties":{"Name":"Colegio Pío XII","description":"http://www.ceice.gva.es/es/web/centros-docentes/consulta-general?viewUrl162652993=/abc/i_guiadecentros/es/centro.asp&codi=46011107"},"geometry":{"type":"Point","coordinates":[-0.3713884,39.4806885]}},{"type":"Feature","properties":{"Name":"Colegio Sagrada Familia PJO","description":"http://www.ceice.gva.es/es/web/centros-docentes/consulta-general?viewUrl162652993=/abc/i_guiadecentros/es/centro.asp&codi=46010930"},"geometry":{"type":"Point","coordinates":[-0.357379,39.4901599]}},{"type":"Feature","properties":{"Name":"Centro Privado De Educación Infantil Primaria Y Secundaria Sagrado Corazón De Jesús Esclavas","description":"http://www.ceice.gva.es/es/web/centros-docentes/consulta-general?viewUrl162652993=/abc/i_guiadecentros/es/centro.asp&codi=46011077"},"geometry":{"type":"Point","coordinates":[-0.365677799999958,39.4766904]}},{"type":"Feature","properties":{"Name":"Colegio San José de Calasanz","description":"http://www.ceice.gva.es/es/web/centros-docentes/consulta-general?viewUrl162652993=/abc/i_guiadecentros/es/centro.asp&codi=46012628"},"geometry":{"type":"Point","coordinates":[-0.364191500000061,39.476498]}},{"type":"Feature","properties":{"Name":"Àrea 6 - Secundària i Batxillerat","description":"Cauce viejo del río/Avda. Burjassot/Dr Peset Aleixandre/Juan XXIII/Hermanos Machado/Av.Constitución/Límite de Tavernes Blanques/Límite de Alboraia/Alfahuir/Almazora/Vía del ferrocarril/Cauce viejo del río. Incluye edificio de la Polícia Autonòmica (Estación puente de madera)."},"geometry":{"type":"Polygon","coordinates":[[[-0.3864887,39.4976004],[-0.385271,39.4980101],[-0.3823954,39.4902119],[-0.3894179,39.4883188],[-0.3820897,39.4826949],[-0.3802342,39.4830883],[-0.3774581,39.4827727],[-0.3738639,39.4806321],[-0.3705274,39.4863498],[-0.367405,39.4888519],[-0.3571842,39.4943477],[-0.3600349,39.4967312],[-0.3619753,39.4986515],[-0.3639156,39.5002405],[-0.3650635,39.5011907],[-0.366383,39.5022403],[-0.3667531,39.5025755],[-0.3673163,39.5027659],[-0.3674827,39.5030845],[-0.3679709,39.5031963],[-0.3672412,39.5057792],[-0.3702454,39.506607],[-0.3707603,39.5100174],[-0.3669837,39.5124013],[-0.3700737,39.5146526],[-0.3711466,39.5165562],[-0.3720478,39.5180957],[-0.3732279,39.5231771],[-0.3747944,39.5283578],[-0.3738503,39.5338524],[-0.3798584,39.5341172],[-0.3816823,39.5365664],[-0.3843859,39.53885],[-0.3880338,39.5386515],[-0.3955441,39.5373607],[-0.398591,39.5330249],[-0.4027967,39.5367319],[-0.4041271,39.5390486],[-0.4011094,39.541639],[-0.3998865,39.5429214],[-0.4004444,39.5434923],[-0.4023782,39.5438919],[-0.4058451,39.5440008],[-0.4083426,39.5448386],[-0.4071066,39.5515338],[-0.4030465,39.5531105],[-0.4063294,39.558024],[-0.4083143,39.5573375],[-0.4094999,39.5571307],[-0.4118307,39.559484],[-0.4135326,39.5634893],[-0.412541,39.5638949],[-0.4151351,39.565024],[-0.418342,39.5672096],[-0.4200742,39.5700557],[-0.4207129,39.5711135],[-0.4228746,39.5725575],[-0.4247866,39.5678004],[-0.429531,39.5609092],[-0.4269913,39.5593461],[-0.4238723,39.5595696],[-0.422191,39.5582876],[-0.4200376,39.5539283],[-0.4194831,39.5519771],[-0.4155442,39.5444571],[-0.4049979,39.5383266],[-0.404061,39.5365055],[-0.4050982,39.5348499],[-0.4026809,39.5326812],[-0.4013864,39.5328712],[-0.3994911,39.532333],[-0.4000357,39.5282259],[-0.4010391,39.5268968],[-0.4031316,39.5265226],[-0.4052352,39.5229403],[-0.4044841,39.5199608],[-0.4055785,39.516849],[-0.4014338,39.5150941],[-0.4004646,39.5106574],[-0.3978218,39.5084391],[-0.398183,39.5077437],[-0.3997995,39.5081411],[-0.4035469,39.50483],[-0.4037323,39.5019164],[-0.4034885,39.5007246],[-0.4018268,39.4992692],[-0.3992215,39.5002971],[-0.395071,39.5032456],[-0.3932077,39.5033146],[-0.3916878,39.5025226],[-0.3864887,39.4976004]]]}},{"type":"Feature","properties":{"Name":"Districte XVII (Poblats del Nord)","description":"Carpesa, Benifaraig, Massarrojos, Borbotó, Poble Nou, Casas de Bárcena, Mahuella-Tauladella, Rafalell-Vistavella"},"geometry":{"type":"Polygon","coordinates":[[[-0.3605208,39.5178246],[-0.3562292,39.5240483],[-0.354813,39.5239821],[-0.3536972,39.5234193],[-0.3519377,39.5260013],[-0.354298,39.5270606],[-0.3531822,39.5296756],[-0.3537831,39.5298742],[-0.3534827,39.5306686],[-0.3539976,39.5316947],[-0.3547272,39.533151],[-0.3549418,39.5345412],[-0.3552422,39.5360967],[-0.356873,39.536858],[-0.3582033,39.5369242],[-0.3599629,39.5376523],[-0.3626665,39.538579],[-0.3632674,39.5382811],[-0.3639111,39.5384797],[-0.3648123,39.5381818],[-0.3645977,39.5367256],[-0.3619799,39.5355672],[-0.3639111,39.5327538],[-0.3647265,39.5343426],[-0.3667435,39.5330517],[-0.3640827,39.5292453],[-0.3653702,39.5274909],[-0.3630528,39.5267958],[-0.3631815,39.5263985],[-0.3629669,39.5248096],[-0.3630528,39.5232869],[-0.3625378,39.5209034],[-0.3620657,39.5184205],[-0.3605208,39.5178246]]]}},{"type":"Feature","properties":{"Name":"Districte XVII (Poblats del nord)","description":"Carpesa, Benifaraig, Massarrojos, Borbotó, Poble Nou, Casas de Bárcena, Mahuella-Tauladella, Rafalell-Vistavella"},"geometry":{"type":"Polygon","coordinates":[[[-0.3442127,39.5560022],[-0.3448564,39.5542486],[-0.3396637,39.552925],[-0.3391916,39.553289],[-0.3371746,39.5527265],[-0.3386766,39.5502778],[-0.3364021,39.5495167],[-0.3370029,39.5482924],[-0.3403074,39.549616],[-0.3420669,39.547432],[-0.3398782,39.5463068],[-0.3413803,39.5441227],[-0.3347284,39.5419716],[-0.3332693,39.5439241],[-0.3304798,39.5430306],[-0.329879,39.5436263],[-0.3291065,39.543163],[-0.3281624,39.5436263],[-0.3295356,39.5441227],[-0.3330976,39.5449831],[-0.3330118,39.5459428],[-0.3344709,39.5465054],[-0.3317672,39.5517338],[-0.3364021,39.5531897],[-0.3321535,39.5602704],[-0.3336555,39.5609322],[-0.3351146,39.5580868],[-0.337475,39.5587816],[-0.3397495,39.5545795],[-0.3442127,39.5560022]]]}},{"type":"Feature","properties":{"Name":"Institut Educació Secundària El Clot","description":"http://www.ceice.gva.es/es/web/centros-docentes/consulta-general?viewUrl162652993=/abc/i_guiadecentros/es/centro.asp&codi=46017195"},"geometry":{"type":"Point","coordinates":[-0.3795599,39.48935]}},{"type":"Feature","properties":{"Name":"I.E.S. José Ballester Gozalvo","description":"http://www.ceice.gva.es/es/web/centros-docentes/consulta-general?viewUrl162652993=/abc/i_guiadecentros/es/centro.asp&codi=46019763"},"geometry":{"type":"Point","coordinates":[-0.379845100000011,39.4967105]}},{"type":"Feature","properties":{"Name":"I.E.S Orriols","description":"http://www.ceice.gva.es/es/web/centros-docentes/consulta-general?viewUrl162652993=/abc/i_guiadecentros/es/centro.asp&codi=46018138"},"geometry":{"type":"Point","coordinates":[-0.366851,39.4961636]}},{"type":"Feature","properties":{"Name":"Colegio Hermanas Mantellate","description":"http://www.ceice.gva.es/es/web/centros-docentes/consulta-general?viewUrl162652993=/abc/i_guiadecentros/es/centro.asp&codi=46010668"},"geometry":{"type":"Point","coordinates":[-0.385836899999958,39.4864213]}},{"type":"Feature","properties":{"Name":"Centro Educativo Juan Comenius","description":"http://www.ceice.gva.es/es/web/centros-docentes/consulta-general?viewUrl162652993=/abc/i_guiadecentros/es/centro.asp&codi=46017304"},"geometry":{"type":"Point","coordinates":[-0.38429,39.488954]}},{"type":"Feature","properties":{"Name":"Centro Privado de Ed. Infantil, Primaria y Secundaria Luz Casanova","description":"http://www.ceice.gva.es/es/web/centros-docentes/consulta-general?viewUrl162652993=/abc/i_guiadecentros/es/centro.asp&codi=46010620"},"geometry":{"type":"Point","coordinates":[-0.373249200000032,39.4882218]}},{"type":"Feature","properties":{"Name":"Colegio María Auxiliadora","description":"http://www.ceice.gva.es/es/web/centros-docentes/consulta-general?viewUrl162652993=/abc/i_guiadecentros/es/centro.asp&codi=46010796"},"geometry":{"type":"Point","coordinates":[-0.37346070000001,39.4925907]}},{"type":"Feature","properties":{"Name":"Colegio Marni","description":"http://www.ceice.gva.es/es/web/centros-docentes/consulta-general?viewUrl162652993=/abc/i_guiadecentros/es/centro.asp&codi=46012021"},"geometry":{"type":"Point","coordinates":[-0.367889500000047,39.4961503]}},{"type":"Feature","properties":{"Name":"Colegio Mercurio S C L","description":"http://www.ceice.gva.es/es/web/centros-docentes/consulta-general?viewUrl162652993=/abc/i_guiadecentros/es/centro.asp&codi=46010735"},"geometry":{"type":"Point","coordinates":[-0.375087500000063,39.4855171]}},{"type":"Feature","properties":{"Name":"Centro Privado de Enseñanza Santísima Trinidad","description":"http://www.ceice.gva.es/es/web/centros-docentes/consulta-general?viewUrl162652993=/abc/i_guiadecentros/es/centro.asp&codi=46010802"},"geometry":{"type":"Point","coordinates":[-0.3771822,39.4839165]}},{"type":"Feature","properties":{"Name":"Col.legi diocesà Santiago Apòstol","description":"http://www.ceice.gva.es/es/web/centros-docentes/consulta-general?viewUrl162652993=/abc/i_guiadecentros/es/centro.asp&codi=46010826"},"geometry":{"type":"Point","coordinates":[-0.380660300000045,39.4855575]}},{"type":"Feature","properties":{"Name":"Àrea 7 - Secundària/Batxillerat","description":"Avda. del Puerto/Cardenal Benlloch/Clariano/Palancia/Avda.Cataluña/Límite de Alboraia/Ingeniero Fausto Elio/Lluís Peixò/Blas de Lezo/Bulevar de Serrería/Avda. del Puerto."},"geometry":{"type":"Polygon","coordinates":[[[-0.3495404,39.4886942],[-0.3522441,39.4803144],[-0.3538644,39.479458],[-0.3544757,39.4782607],[-0.3516433,39.4773994],[-0.3562781,39.4670636],[-0.3384763,39.4617369],[-0.3367946,39.463386],[-0.3352067,39.4658046],[-0.3335759,39.4753125],[-0.3313308,39.4855221],[-0.3315589,39.4850841],[-0.3330609,39.4839911],[-0.3347346,39.4840904],[-0.3398845,39.4835273],[-0.3418586,39.4837592],[-0.3439185,39.4846204],[-0.3463647,39.4851172],[-0.3489396,39.4873363],[-0.3495404,39.4886942]]]}},{"type":"Feature","properties":{"Name":"Instituto de Educación Secundaria Ies Ramón Llull","description":"http://www.ceice.gva.es/es/web/centros-docentes/consulta-general?viewUrl162652993=/abc/i_guiadecentros/es/centro.asp&codi=46017687"},"geometry":{"type":"Point","coordinates":[-0.346218799999974,39.4759614]}},{"type":"Feature","properties":{"Name":"Ies Cabanyal","description":"http://www.ceice.gva.es/es/web/centros-docentes/consulta-general?viewUrl162652993=/abc/i_guiadecentros/es/centro.asp&codi=46013050"},"geometry":{"type":"Point","coordinates":[-0.340162,39.4755166]}},{"type":"Feature","properties":{"Name":"IES Sorolla","description":"http://www.ceice.gva.es/es/web/centros-docentes/consulta-general?viewUrl162652993=/abc/i_guiadecentros/es/centro.asp&codi=46013098"},"geometry":{"type":"Point","coordinates":[-0.3386061,39.4673708]}},{"type":"Feature","properties":{"Name":"IES Serpis","description":"http://www.ceice.gva.es/es/web/centros-docentes/consulta-general?viewUrl162652993=/abc/i_guiadecentros/es/centro.asp&codi=46022646"},"geometry":{"type":"Point","coordinates":[-0.338221100000055,39.4735063]}},{"type":"Feature","properties":{"Name":"COLEGIO ENGEBA","description":"http://www.ceice.gva.es/es/web/centros-docentes/consulta-general?viewUrl162652993=/abc/i_guiadecentros/es/centro.asp&codi=46011223"},"geometry":{"type":"Point","coordinates":[-0.3524536,39.4672909]}},{"type":"Feature","properties":{"Name":"Colegio La Anunciación","description":"http://www.ceice.gva.es/es/web/centros-docentes/consulta-general?viewUrl162652993=/abc/i_guiadecentros/es/centro.asp&codi=46011511"},"geometry":{"type":"Point","coordinates":[-0.344957900000054,39.4642685]}},{"type":"Feature","properties":{"Name":"Colegio Santa Ana .","description":"http://www.ceice.gva.es/es/web/centros-docentes/consulta-general?viewUrl162652993=/abc/i_guiadecentros/es/centro.asp&codi=46011508"},"geometry":{"type":"Point","coordinates":[-0.353701499999943,39.4673321]}},{"type":"Feature","properties":{"Name":"Àrea 8 - Secundària/Batxillerat","description":"Serreria, M. Blas de Lezo, Lluís Peixo, Ingeniero Fausto Elio, Límite Alboraya, Playa, Dr. Marcos Sopena, JJ Domine, Av. Puerto, Serrería, Incluye Recinto del Puerto"},"geometry":{"type":"Polygon","coordinates":[[[-0.3384763,39.4617369],[-0.3355044,39.4608671],[-0.3311002,39.4597116],[-0.3307757,39.4606248],[-0.3298503,39.461273],[-0.3293997,39.4615629],[-0.3284341,39.461654],[-0.3261381,39.4616374],[-0.324915,39.4602873],[-0.3234988,39.4609416],[-0.3226995,39.4612854],[-0.321235,39.4615133],[-0.3164177,39.4612399],[-0.3163103,39.4628468],[-0.321031,39.463294],[-0.3218036,39.469622],[-0.3224474,39.4784007],[-0.3228765,39.4843629],[-0.3258806,39.4842304],[-0.3281551,39.4843297],[-0.329743,39.4848597],[-0.3313308,39.4855221],[-0.3320175,39.4823093],[-0.3325754,39.4801562],[-0.3331333,39.4770094],[-0.3335624,39.4749887],[-0.3339916,39.4725042],[-0.3344207,39.4707815],[-0.3347641,39.4688269],[-0.3350216,39.4669054],[-0.3354078,39.465547],[-0.3361374,39.4642218],[-0.3371352,39.4629462],[-0.3384763,39.4617369]]]}},{"type":"Feature","properties":{"Name":"Colegio Parroquial Diocesano Santiago Apóstol (Comunidad de aprendizaje)","description":"http://www.ceice.gva.es/es/web/centros-docentes/consulta-general?viewUrl162652993=/abc/i_guiadecentros/es/centro.asp&codi=46011624"},"geometry":{"type":"Point","coordinates":[-0.32976,39.47403]}},{"type":"Feature","properties":{"Name":"Centro Concertado de Enseñanza Santa Magdalena Sofía","description":null},"geometry":{"type":"Point","coordinates":[-0.339526699999965,39.4468626]}},{"type":"Feature","properties":{"Name":"Institut d'Educació Secundària Ies El Grau","description":"http://www.ceice.gva.es/es/web/centros-docentes/consulta-general?viewUrl162652993=/abc/i_guiadecentros/es/centro.asp&codi=46015290"},"geometry":{"type":"Point","coordinates":[-0.33185,39.462164]}},{"type":"Feature","properties":{"Name":"IES Isabel de Villena","description":"http://www.ceice.gva.es/es/web/centros-docentes/consulta-general?viewUrl162652993=/abc/i_guiadecentros/es/centro.asp&codi=46013086"},"geometry":{"type":"Point","coordinates":[-0.325413600000047,39.4779255]}},{"type":"Feature","properties":{"Name":"Colegio Chiner Villarroya","description":"http://www.ceice.gva.es/es/web/centros-docentes/consulta-general?viewUrl162652993=/abc/i_guiadecentros/es/centro.asp&codi=46011481"},"geometry":{"type":"Point","coordinates":[-0.333361,39.4730068]}},{"type":"Feature","properties":{"Name":"Escuelas Pías Malvarrosa","description":"http://www.ceice.gva.es/es/web/centros-docentes/consulta-general?viewUrl162652993=/abc/i_guiadecentros/es/centro.asp&codi=46011387"},"geometry":{"type":"Point","coordinates":[-0.329803500000025,39.4820535]}},{"type":"Feature","properties":{"Name":"la purísima grao","description":"http://www.ceice.gva.es/es/web/centros-docentes/consulta-general?viewUrl162652993=/abc/i_guiadecentros/es/centro.asp&codi=46011314"},"geometry":{"type":"Point","coordinates":[-0.3335095,39.4616908]}},{"type":"Feature","properties":{"Name":"Colegio Hogar Nuestra Señora del Rosario","description":"http://www.ceice.gva.es/es/web/centros-docentes/consulta-general?viewUrl162652993=/abc/i_guiadecentros/es/centro.asp&codi=46013074"},"geometry":{"type":"Point","coordinates":[-0.332607,39.46524]}},{"type":"Feature","properties":{"Name":"Colegio Pureza de María Grao","description":"http://www.ceice.gva.es/es/web/centros-docentes/consulta-general?viewUrl162652993=/abc/i_guiadecentros/es/centro.asp&codi=46011478"},"geometry":{"type":"Point","coordinates":[-0.332039900000041,39.4658243]}},{"type":"Feature","properties":{"Name":"Àrea 9 - Secundària/Batxillerat","description":"Cauce viejo del río/Eduardo Boscà/Avda del Puerto/Ingeniero Manuel Soto/Nazaret/Vía del Ferrocarril/Cauce viejo del río. Incluye Ciutat de les Arts i les Ciències i l'Institut de Biomecànica i tambè el recinte del Port."},"geometry":{"type":"Polygon","coordinates":[[[-0.3566479,39.467081],[-0.3580205,39.4639495],[-0.3574839,39.4628208],[-0.3566685,39.4617916],[-0.3537395,39.4600044],[-0.350301,39.4576528],[-0.3477639,39.4560631],[-0.3463656,39.4551772],[-0.3441918,39.454491],[-0.3416747,39.4546663],[-0.3415591,39.4393779],[-0.3426965,39.438425],[-0.343147,39.4370743],[-0.3437049,39.4343067],[-0.3424175,39.4293016],[-0.3327371,39.4263335],[-0.3325409,39.4315198],[-0.3300027,39.4305556],[-0.3303339,39.4278316],[-0.3261898,39.4266263],[-0.3133536,39.4230213],[-0.3092231,39.4305954],[-0.3128921,39.4332799],[-0.3151666,39.4304286],[-0.3305303,39.4354005],[-0.3280407,39.4401734],[-0.3205305,39.4375882],[-0.3176123,39.4439847],[-0.3250366,39.4463709],[-0.325337,39.4498174],[-0.3213888,39.4482598],[-0.3203159,39.449983],[-0.3262383,39.4519713],[-0.3261524,39.4526838],[-0.3256375,39.4525512],[-0.3254443,39.4532139],[-0.3237921,39.4528329],[-0.3226763,39.4540258],[-0.3237063,39.4544897],[-0.326088,39.4551441],[-0.3282123,39.4561962],[-0.3297895,39.4569749],[-0.33068,39.4584659],[-0.3313574,39.459811],[-0.3346926,39.4605865],[-0.3371388,39.4612823],[-0.3566479,39.467081]]]}},{"type":"Feature","properties":{"Name":"Institut d'Educació Secundària Ies Districte Marítim","description":"http://www.ceice.gva.es/es/web/centros-docentes/consulta-general?viewUrl162652993=/abc/i_guiadecentros/es/centro.asp&codi=46015708"},"geometry":{"type":"Point","coordinates":[-0.344186400000012,39.4597136]}},{"type":"Feature","properties":{"Name":"IES Balears","description":"http://www.ceice.gva.es/es/web/centros-docentes/consulta-general?viewUrl162652993=/abc/i_guiadecentros/es/centro.asp&codi=46018552"},"geometry":{"type":"Point","coordinates":[-0.341188500000044,39.4588061]}},{"type":"Feature","properties":{"Name":"Colegio Ave María de Peñarrocha","description":"http://www.ceice.gva.es/es/web/centros-docentes/consulta-general?viewUrl162652993=/abc/i_guiadecentros/es/centro.asp&codi=46011612"},"geometry":{"type":"Point","coordinates":[-0.354084400000033,39.4611759]}},{"type":"Feature","properties":{"Name":"CENTRE PRIVAT D'EDUCACIÓ INFANTIL, PRIMÀRIA I SECUNDÀRIA\nNUESTRA SEÑORA DE LOS DESAMPARADOS","description":"http://www.ceice.gva.es/es/web/centros-docentes/consulta-general?viewUrl162652993=/abc/i_guiadecentros/es/centro.asp&codi=46011661"},"geometry":{"type":"Point","coordinates":[-0.332959599999981,39.449295]}},{"type":"Feature","properties":{"Name":"Centro Concertado de Enseñanza Santa Magdalena Sofía","description":"http://www.ceice.gva.es/es/web/centros-docentes/consulta-general?viewUrl162652993=/abc/i_guiadecentros/es/centro.asp&codi=46011697"},"geometry":{"type":"Point","coordinates":[-0.339526699999965,39.4468626]}},{"type":"Feature","properties":{"Name":"Colegio Trafalgar","description":"http://www.ceice.gva.es/es/web/centros-docentes/consulta-general?viewUrl162652993=/abc/i_guiadecentros/es/centro.asp&codi=46011491"},"geometry":{"type":"Point","coordinates":[-0.342822100000035,39.4614489]}},{"type":"Feature","properties":{"Name":"Àrea 10 - Secundària/Batxillerat","description":"Hermanos Machado/Juan XXIII/Peset Aleixandre/Avda. Burjassot/Cauce Viejo del río/Límite distrito municipal 16/Hermanos Machado. Se incluyen Benimamet y Beniferri."},"geometry":{"type":"Polygon","coordinates":[[[-0.425194,39.494331],[-0.4216965,39.4956227],[-0.4184778,39.4931885],[-0.4165195,39.4956024],[-0.4108703,39.4958304],[-0.4049583,39.4874603],[-0.4072328,39.4809021],[-0.4056878,39.4747243],[-0.3975991,39.4765048],[-0.3888335,39.4797136],[-0.3827338,39.4829079],[-0.3895087,39.4886195],[-0.3821755,39.4901746],[-0.3850682,39.4973778],[-0.3917219,39.50184],[-0.3944278,39.5027257],[-0.3985477,39.4997454],[-0.4019928,39.4982595],[-0.4044015,39.4971956],[-0.4122336,39.5036033],[-0.4180272,39.5056231],[-0.4227479,39.5071462],[-0.4230268,39.5060535],[-0.4241855,39.5056479],[-0.4256876,39.5071296],[-0.4280587,39.5067076],[-0.4317387,39.5058715],[-0.4285843,39.4972453],[-0.425194,39.494331]]]}},{"type":"Feature","properties":{"Name":"IES Conselleria","description":"http://www.ceice.gva.es/es/web/centros-docentes/consulta-general?viewUrl162652993=/abc/i_guiadecentros/es/centro.asp&codi=46022257"},"geometry":{"type":"Point","coordinates":[-0.393131,39.485209]}},{"type":"Feature","properties":{"Name":"IES Campanar","description":"http://www.ceice.gva.es/es/web/centros-docentes/consulta-general?viewUrl162652993=/abc/i_guiadecentros/es/centro.asp&codi=46015711"},"geometry":{"type":"Point","coordinates":[-0.398581499999977,39.4810428]}},{"type":"Feature","properties":{"Name":"IES Benicalap","description":"http://www.ceice.gva.es/es/web/centros-docentes/consulta-general?viewUrl162652993=/abc/i_guiadecentros/es/centro.asp&codi=46023547"},"geometry":{"type":"Point","coordinates":[-0.4001912,39.4963511]}},{"type":"Feature","properties":{"Name":"Institut d'Educació Secundària Ies Benimàmet","description":"http://www.ceice.gva.es/es/web/centros-docentes/consulta-general?viewUrl162652993=/abc/i_guiadecentros/es/centro.asp&codi=46018916"},"geometry":{"type":"Point","coordinates":[-0.4239503,39.5041014]}},{"type":"Feature","properties":{"Name":"Colegio Argos","description":"http://www.ceice.gva.es/es/web/centros-docentes/consulta-general?viewUrl162652993=/abc/i_guiadecentros/es/centro.asp&codi=46014212"},"geometry":{"type":"Point","coordinates":[-0.398789099999931,39.4973669]}},{"type":"Feature","properties":{"Name":"Colegio El Ave María","description":"http://www.ceice.gva.es/es/web/centros-docentes/consulta-general?viewUrl162652993=/abc/i_guiadecentros/es/centro.asp&codi=46009034"},"geometry":{"type":"Point","coordinates":[-0.424043500000039,39.500749]}},{"type":"Feature","properties":{"Name":"Centro Privado de Enseñanza María Inmaculada","description":"http://www.ceice.gva.es/es/web/centros-docentes/consulta-general?viewUrl162652993=/abc/i_guiadecentros/es/centro.asp&codi=46010747"},"geometry":{"type":"Point","coordinates":[-0.387608699999987,39.4835379]}},{"type":"Feature","properties":{"Name":"Centro Concertado de Enseñanza Nuestra Señora del Carmen y San Vicente de Paúl","description":"http://www.ceice.gva.es/es/web/centros-docentes/consulta-general?viewUrl162652993=/abc/i_guiadecentros/es/centro.asp&codi=46010723"},"geometry":{"type":"Point","coordinates":[-0.391536200000019,39.490789]}},{"type":"Feature","properties":{"Name":"Centro Privado de Enseñanza Niño Jesús","description":"http://www.ceice.gva.es/es/web/centros-docentes/consulta-general?viewUrl162652993=/abc/i_guiadecentros/es/centro.asp&codi=46011961"},"geometry":{"type":"Point","coordinates":[-0.402034,39.48999]}},{"type":"Feature","properties":{"Name":"Colegio Sagrada Familia","description":"http://www.ceice.gva.es/es/web/centros-docentes/consulta-general?viewUrl162652993=/abc/i_guiadecentros/es/centro.asp&codi=46012011"},"geometry":{"type":"Point","coordinates":[-0.401847699999962,39.4886241]}},{"type":"Feature","properties":{"Name":"Colegio de Fomento Vilavella","description":"http://www.ceice.gva.es/es/web/centros-docentes/consulta-general?viewUrl162652993=/abc/i_guiadecentros/es/centro.asp&codi=46016658"},"geometry":{"type":"Point","coordinates":[-0.392803700000059,39.479054]}},{"type":"Feature","properties":{"Name":"Escuelas San Jose, Jesuitas","description":"http://www.ceice.gva.es/es/web/centros-docentes/consulta-general?viewUrl162652993=/abc/i_guiadecentros/es/centro.asp&codi=46012094"},"geometry":{"type":"Point","coordinates":[-0.397610699999973,39.4867654]}},{"type":"Feature","properties":{"Name":"Colegio Diocesano San Roque","description":"http://www.ceice.gva.es/es/web/centros-docentes/consulta-general?viewUrl162652993=/abc/i_guiadecentros/es/centro.asp&codi=46012070"},"geometry":{"type":"Point","coordinates":[-0.390526,39.4908615]}},{"type":"Feature","properties":{"Name":"Colegio Diocesano San Juan Bosco","description":"http://www.ceice.gva.es/es/web/centros-docentes/consulta-general?viewUrl162652993=/abc/i_guiadecentros/es/centro.asp&codi=46010863"},"geometry":{"type":"Point","coordinates":[-0.384517100000039,39.482844]}},{"type":"Feature","properties":{"Name":"Àrea 2-Secundària/Batxillerat","description":"Cauce viejo del río/límite de Mislata/Límite de Xirivella/Cauce nuevo del río/Campos Crespo/Pío XI/Cuenca/Pérez Galdós/Cauce viejo del río."},"geometry":{"type":"Polygon","coordinates":[[[-0.4128549,39.4631672],[-0.4151132,39.4615031],[-0.4135415,39.4596714],[-0.4057953,39.4489025],[-0.3981564,39.455066],[-0.3954546,39.4570344],[-0.3923278,39.4597091],[-0.3894458,39.4628588],[-0.3880737,39.4643715],[-0.395809,39.4749159],[-0.4056344,39.4731227],[-0.4080913,39.4727418],[-0.4109775,39.47251],[-0.4122596,39.4712511],[-0.4139535,39.4707335],[-0.4156902,39.4698846],[-0.4153562,39.4695822],[-0.4180538,39.469311],[-0.4207513,39.4693047],[-0.4171249,39.4683771],[-0.416213,39.467967],[-0.4152366,39.4673997],[-0.414437,39.4677449],[-0.4144742,39.4669141],[-0.4125102,39.4670248],[-0.4124445,39.4667493],[-0.4117551,39.4665461],[-0.4111919,39.4662557],[-0.4112026,39.465973],[-0.4126188,39.4658053],[-0.4124365,39.4642378],[-0.4128549,39.4631672]]]}},{"type":"Feature","properties":{"Name":"Colegio Jesús - María Fuensanta","description":"http://www.ceice.gva.es/es/web/centros-docentes/consulta-general?viewUrl162652993=/abc/i_guiadecentros/es/centro.asp&codi=46011922"},"geometry":{"type":"Point","coordinates":[-0.4090483,39.4653415]}},{"type":"Feature","properties":{"Name":"Colegio Hermes Sociedad Cooperativa Valenciana","description":"http://www.ceice.gva.es/es/web/centros-docentes/consulta-general?viewUrl162652993=/abc/i_guiadecentros/es/centro.asp&codi=46010772"},"geometry":{"type":"Point","coordinates":[-0.390749,39.462933]}},{"type":"Feature","properties":{"Name":"Colegio La Purisima Franciscanas","description":"http://www.ceice.gva.es/es/web/centros-docentes/consulta-general?viewUrl162652993=/abc/i_guiadecentros/es/centro.asp&codi=46010267"},"geometry":{"type":"Point","coordinates":[-0.404759099999978,39.4644873]}},{"type":"Feature","properties":{"Name":"Centro Privado De Educación Infantil Primaria Y Secundaria Esclavas De María","description":"http://www.ceice.gva.es/es/web/centros-docentes/consulta-general?viewUrl162652993=/abc/i_guiadecentros/es/centro.asp&codi=46010191"},"geometry":{"type":"Point","coordinates":[-0.392944,39.4654886]}},{"type":"Feature","properties":{"Name":"Colegio Pureza De Maria-Cid","description":"http://www.ceice.gva.es/es/web/centros-docentes/consulta-general?viewUrl162652993=/abc/i_guiadecentros/es/centro.asp&codi=46011879"},"geometry":{"type":"Point","coordinates":[-0.409450900000024,39.4702978]}},{"type":"Feature","properties":{"Name":"Centro Privado de Enseñanza Nuestra Señora de Fátima","description":"http://www.ceice.gva.es/es/web/centros-docentes/consulta-general?viewUrl162652993=/abc/i_guiadecentros/es/centro.asp&codi=46010553"},"geometry":{"type":"Point","coordinates":[-0.4045195,39.4681532]}},{"type":"Feature","properties":{"Name":"Som Escola Coop. (Infantil Primaria y ESO)","description":"http://www.ceice.gva.es/es/web/centros-docentes/consulta-general?viewUrl162652993=/abc/i_guiadecentros/es/centro.asp&codi=46011776"},"geometry":{"type":"Point","coordinates":[-0.406156,39.47146]}},{"type":"Feature","properties":{"Name":"Colegio Santa María","description":"http://www.ceice.gva.es/es/web/centros-docentes/consulta-general?viewUrl162652993=/abc/i_guiadecentros/es/centro.asp&codi=46011867"},"geometry":{"type":"Point","coordinates":[-0.406622700000071,39.466307]}},{"type":"Feature","properties":{"Name":"Colegio Claret Fuensanta","description":"http://www.ceice.gva.es/es/web/centros-docentes/consulta-general?viewUrl162652993=/abc/i_guiadecentros/es/centro.asp&codi=46011892"},"geometry":{"type":"Point","coordinates":[-0.40902,39.4654457]}},{"type":"Feature","properties":{"Name":"Instituto de Educación Secundaria Cid Campeador","description":"http://www.ceice.gva.es/es/web/centros-docentes/consulta-general?viewUrl162652993=/abc/i_guiadecentros/es/centro.asp&codi=46012987"},"geometry":{"type":"Point","coordinates":[-0.3995238,39.4655803]}},{"type":"Feature","properties":{"Name":"Instituto de Educación Secundaria Ies Número 26","description":"http://www.ceice.gva.es/es/web/centros-docentes/consulta-general?viewUrl162652993=/abc/i_guiadecentros/es/centro.asp&codi=46018059"},"geometry":{"type":"Point","coordinates":[-0.411377300000026,39.4644571]}},{"type":"Feature","properties":{"Name":"IES Patraix - Vicenta Ferrer Escrivà","description":"http://www.ceice.gva.es/es/web/centros-docentes/consulta-general?viewUrl162652993=/abc/i_guiadecentros/es/centro.asp&codi=46022944"},"geometry":{"type":"Point","coordinates":[-0.396393699999976,39.4606787]}},{"type":"Feature","properties":{"Name":"Àrea 4-A - Secundària/Batxillerat","description":"Ausias March/Peris i Valero/Vía del Ferrocarril/Gibraltar/ Alicante/Xàtiva/ Colón/ Justicia/Cauce viejo del río/Vía del Ferrocarril/Cauce Nuevo del río/Avda. Ausias March.  Incluye Ciutat de les Arts i les Ciències i el Institut de Biomecànica."},"geometry":{"type":"Polygon","coordinates":[[[-0.3698273,39.436671],[-0.3670261,39.4364876],[-0.3620167,39.4358757],[-0.3582402,39.4348813],[-0.3424175,39.4293016],[-0.3435315,39.4320747],[-0.3438432,39.434903],[-0.3424064,39.4387034],[-0.3413017,39.4394773],[-0.3413314,39.4398529],[-0.3414173,39.4537717],[-0.3462239,39.4541693],[-0.3489705,39.4552297],[-0.3518887,39.4566877],[-0.3543778,39.4585432],[-0.3577252,39.4596035],[-0.3606121,39.4624471],[-0.3611577,39.4640814],[-0.3626221,39.4669362],[-0.3647733,39.4699235],[-0.3666958,39.4729055],[-0.3684104,39.4723969],[-0.3713075,39.4695703],[-0.374988,39.4672977],[-0.3762666,39.4671407],[-0.377734,39.4629219],[-0.3806414,39.4551352],[-0.3755344,39.4571348],[-0.3682824,39.4463487],[-0.3698273,39.436671]]]}},{"type":"Feature","properties":{"Name":"Centro Privado de Enseñanza San José Hermanas Franciscanas de la Inmaculada","description":"Informació del Centre: http://www.ceice.gva.es/es/web/centros-docentes/consulta-general?viewUrl162652993=/abc/i_guiadecentros/es/centro.asp&codi=46009708"},"geometry":{"type":"Point","coordinates":[-0.368969200000038,39.4631532]}},{"type":"Feature","properties":{"Name":"Colegio Sagrado Corazón Hermanos Maristas","description":"Informació del Centre: http://www.ceice.gva.es/es/web/centros-docentes/consulta-general?viewUrl162652993=/abc/i_guiadecentros/es/centro.asp&codi=46009733"},"geometry":{"type":"Point","coordinates":[-0.363072800000054,39.4648954]}},{"type":"Feature","properties":{"Name":"Escuela de Artesanos Fundación de la Comunidad Valenciana","description":"Més Informació: http://www.ceice.gva.es/es/web/centros-docentes/consulta-general?viewUrl162652993=/abc/i_guiadecentros/es/centro.asp&codi=46012938"},"geometry":{"type":"Point","coordinates":[-0.369389400000045,39.4638476]}},{"type":"Feature","properties":{"Name":"Colegio Nuestra Señora de Loreto - FESD","description":"Informació del Centre: http://www.ceice.gva.es/es/web/centros-docentes/consulta-general?viewUrl162652993=/abc/i_guiadecentros/es/centro.asp&codi=46009721"},"geometry":{"type":"Point","coordinates":[-0.362124399999971,39.4636743]}},{"type":"Feature","properties":{"Name":"Colegio Liceo Corbí","description":"http://www.ceice.gva.es/es/web/centros-docentes/consulta-general?viewUrl162652993=/abc/i_guiadecentros/es/centro.asp&codi=46009812"},"geometry":{"type":"Point","coordinates":[-0.3631464,39.460142]}},{"type":"Feature","properties":{"Name":"Centro de Estudios García Broch","description":"Informació del Centre: http://www.ceice.gva.es/es/web/centros-docentes/consulta-general?viewUrl162652993=/abc/i_guiadecentros/es/centro.asp&codi=46009654"},"geometry":{"type":"Point","coordinates":[-0.367298,39.4632195]}},{"type":"Feature","properties":{"Name":"Colegio San Juan Bosco - Salesianos Valencia SJB","description":"http://www.ceice.gva.es/es/web/centros-docentes/consulta-general?viewUrl162652993=/abc/i_guiadecentros/es/centro.asp&codi=46013116"},"geometry":{"type":"Point","coordinates":[-0.370241,39.453219]}},{"type":"Feature","properties":{"Name":"INSTITUT EDUCACIÓ SECUNDÀRIA SAN VICENTE FERRER","description":"http://www.ceice.gva.es/es/web/centros-docentes/consulta-general?viewUrl162652993=/abc/i_guiadecentros/es/centro.asp&codi=46012902"},"geometry":{"type":"Point","coordinates":[-0.367969200000061,39.4648225]}},{"type":"Feature","properties":{"Name":"IES Jordi de Sant Jordi","description":"http://www.ceice.gva.es/es/web/centros-docentes/consulta-general?viewUrl162652993=/abc/i_guiadecentros/es/centro.asp&codi=46012951"},"geometry":{"type":"Point","coordinates":[-0.363609200000042,39.4528138]}},{"type":"Feature","properties":{"Name":"IES Font de Sant Lluís","description":"http://www.ceice.gva.es/es/web/centros-docentes/consulta-general?viewUrl162652993=/abc/i_guiadecentros/es/centro.asp&codi=46014224"},"geometry":{"type":"Point","coordinates":[-0.3642489,39.4543904]}},{"type":"Feature","properties":{"Name":"Àrea 4-B - Secundària/Batxillerat","description":"Avda. Ausias March/Peris i Valero/Poeta Federico García Lorca/Límite de Sedaví/Límite de El Perelló/Playa/Cauce nuevo del río/Avda. Ausías March."},"geometry":{"type":"Polygon","coordinates":[[[-0.3693124,39.4413111],[-0.3691719,39.4419893],[-0.3683683,39.4461499],[-0.3756203,39.456936],[-0.3807382,39.455284],[-0.3833669,39.4453094],[-0.3872154,39.4360331],[-0.388233,39.4335241],[-0.3873961,39.4328777],[-0.3853791,39.4321982],[-0.3830268,39.4308086],[-0.3774478,39.4273612],[-0.3753799,39.4267453],[-0.3728478,39.426331],[-0.3721827,39.4259829],[-0.3729122,39.4247895],[-0.3646296,39.4210434],[-0.3648656,39.4199825],[-0.3617788,39.419195],[-0.3600085,39.4196674],[-0.3601051,39.419999],[-0.3586889,39.4202062],[-0.3587103,39.4205874],[-0.3593755,39.4208443],[-0.3591824,39.4221041],[-0.3578949,39.4220792],[-0.3574658,39.4229826],[-0.3502131,39.4222201],[-0.3494903,39.4155571],[-0.3515515,39.3994336],[-0.3356299,39.3821207],[-0.3544451,39.3631218],[-0.3542735,39.3621928],[-0.3575351,39.3619273],[-0.3625132,39.3613964],[-0.3661181,39.3602019],[-0.3671481,39.3574147],[-0.3719546,39.3564856],[-0.3771044,39.35476],[-0.3807093,39.3546273],[-0.3831126,39.3519726],[-0.3846575,39.3494504],[-0.3892924,39.3467955],[-0.3954722,39.344937],[-0.3971888,39.3414853],[-0.3972651,39.338429],[-0.3956439,39.3363075],[-0.3962351,39.3323215],[-0.3965022,39.3284737],[-0.3969218,39.3251512],[-0.3965785,39.3193082],[-0.3940989,39.3161236],[-0.3917719,39.3137303],[-0.3862025,39.3129362],[-0.381911,39.313069],[-0.3791644,39.3097485],[-0.3742625,39.3062924],[-0.367396,39.3001821],[-0.357783,39.2975253],[-0.3361537,39.3015105],[-0.3185281,39.3026151],[-0.3157815,39.3034785],[-0.3130349,39.3032128],[-0.3052243,39.2992277],[-0.2927789,39.283418],[-0.2789602,39.279166],[-0.2750518,39.2791933],[-0.2977111,39.3199749],[-0.3156497,39.3592729],[-0.3280093,39.395365],[-0.3324725,39.4124094],[-0.3342749,39.4233501],[-0.3424175,39.4293016],[-0.3444888,39.4280904],[-0.3460223,39.4285391],[-0.3491871,39.4296215],[-0.3580049,39.4327825],[-0.3703531,39.4345942],[-0.3693124,39.4413111]]]}},{"type":"Feature","properties":{"Name":"IES Malilla","description":"http://www.ceice.gva.es/es/web/centros-docentes/consulta-general?viewUrl162652993=/abc/i_guiadecentros/es/centro.asp&codi=46023870"},"geometry":{"type":"Point","coordinates":[-0.379642500000045,39.4521217]}},{"type":"Feature","properties":{"Name":"IES El Ravatxol","description":"http://www.ceice.gva.es/es/web/centros-docentes/consulta-general?viewUrl162652993=/abc/i_guiadecentros/es/centro.asp&codi=46022579"},"geometry":{"type":"Point","coordinates":[-0.361486900000045,39.4268112]}},{"type":"Feature","properties":{"Name":"INSTITUT EDUCACIÓ SECUNDÀRIA EL SALER","description":"http://www.ceice.gva.es/es/web/centros-docentes/consulta-general?viewUrl162652993=/abc/i_guiadecentros/es/centro.asp&codi=46022932"},"geometry":{"type":"Point","coordinates":[-0.331410900000037,39.3816566]}},{"type":"Feature","properties":{"Name":"Academia Jardín","description":"http://www.ceice.gva.es/es/web/centros-docentes/consulta-general?viewUrl162652993=/abc/i_guiadecentros/es/centro.asp&codi=46009903"},"geometry":{"type":"Point","coordinates":[-0.378305800000021,39.4512292]}},{"type":"Feature","properties":{"Name":"Colegio Martí Sorolla II","description":"http://www.ceice.gva.es/es/web/centros-docentes/consulta-general?viewUrl162652993=/abc/i_guiadecentros/es/centro.asp&codi=46016762"},"geometry":{"type":"Point","coordinates":[-0.377279,39.4540985]}},{"type":"Feature","properties":{"Name":"Centro Privado de Enseñanza Nuestra Señora del Rosario","description":"http://www.ceice.gva.es/es/web/centros-docentes/e.s.o.?viewUrl162653178=/abc/i_guiadecentros/es/centro.asp&codi=46009150"},"geometry":{"type":"Point","coordinates":[-0.365050099999962,39.4283085]}},{"type":"Feature","properties":{"Name":"Àrea 3-Secundària/Batxillerat","description":"Límits: Campos Crespo/Pío XI/Cuenca/Poeta Federico García Lorca/Cauce nuevo del río/Campos Crespo. S'inclou també, Faitanar i el Barri de la Torre."},"geometry":{"type":"Polygon","coordinates":[[[-0.394994,39.4573729],[-0.395498,39.4568097],[-0.3961219,39.4562028],[-0.3981187,39.4548009],[-0.3989249,39.453958],[-0.3993879,39.4536618],[-0.405659,39.4486423],[-0.400611,39.4430241],[-0.39523,39.4402226],[-0.3931805,39.4394944],[-0.3905197,39.4387818],[-0.386671,39.4383469],[-0.3848182,39.4426927],[-0.3833669,39.4453094],[-0.3807566,39.4550866],[-0.3820326,39.455943],[-0.3880737,39.4643715],[-0.3898859,39.4619592],[-0.3907178,39.4612565],[-0.3917775,39.4602094],[-0.3926507,39.4593213],[-0.3935239,39.4585989],[-0.3938612,39.4581445],[-0.394994,39.4573729]]]}},{"type":"Feature","properties":{"Name":"Col·legi Públic José Soto Micó","description":"http://www.ceice.gva.es/es/web/centros-docentes/consulta-general?viewUrl162652993=/abc/i_guiadecentros/es/centro.asp&codi=46013451"},"geometry":{"type":"Point","coordinates":[-0.389975,39.4502588]}},{"type":"Feature","properties":{"Name":"Àrea 3-Secundària/Batxillerat","description":"Faitanar i Barri de La Torre"},"geometry":{"type":"Polygon","coordinates":[[[-0.3872154,39.4360331],[-0.3960989,39.4378229],[-0.4042528,39.4427281],[-0.4097889,39.4500189],[-0.4112051,39.4504166],[-0.4134367,39.4488922],[-0.424423,39.4418001],[-0.4286716,39.4391155],[-0.4286287,39.4385852],[-0.4257963,39.4362651],[-0.4226205,39.4358674],[-0.4192731,39.4357017],[-0.4136083,39.4362651],[-0.410733,39.436464],[-0.4075573,39.4362983],[-0.4057119,39.435105],[-0.4001329,39.4326191],[-0.3983305,39.4310612],[-0.3925798,39.4295695],[-0.3898332,39.4295695],[-0.3872154,39.4360331]]]}},{"type":"Feature","properties":{"Name":"Colegio San Marcelino","description":"http://www.ceice.gva.es/es/web/centros-docentes/consulta-general?viewUrl162652993=/abc/i_guiadecentros/es/centro.asp&codi=46011910"},"geometry":{"type":"Point","coordinates":[-0.391518099999985,39.4434031]}},{"type":"Feature","properties":{"Name":"Colegio Luis De Santangel","description":"http://www.ceice.gva.es/es/web/centros-docentes/consulta-general?viewUrl162652993=/abc/i_guiadecentros/es/centro.asp&codi=46009964"},"geometry":{"type":"Point","coordinates":[-0.3868665,39.452662]}},{"type":"Feature","properties":{"Name":"Colegio Oller 2","description":"http://www.ceice.gva.es/es/web/centros-docentes/consulta-general?viewUrl162652993=/abc/i_guiadecentros"},"geometry":{"type":"Point","coordinates":[-0.391224,39.454298]}},{"type":"Feature","properties":{"Name":"Centro Concertado Concha Espina II","description":"http://www.ceice.gva.es/es/web/centros-docentes/consulta-general?viewUrl162652993=/abc/i_guiadecentros/es/centro.asp&codi=46015851"},"geometry":{"type":"Point","coordinates":[-0.385042500000054,39.4535074]}},{"type":"Feature","properties":{"Name":"IES Juan de Garay","description":"http://www.ceice.gva.es/es/web/centros-docentes/consulta-general?viewUrl162652993=/abc/i_guiadecentros/es/centro.asp&codi=46012963"},"geometry":{"type":"Point","coordinates":[-0.39574760000005,39.4548243]}},{"type":"Feature","properties":{"Name":"Ies Joanot Martorell","description":"http://www.ceice.gva.es/es/web/centros-docentes/consulta-general?viewUrl162652993=/abc/i_guiadecentros/es/centro.asp&codi=46012999"},"geometry":{"type":"Point","coordinates":[-0.391736900000069,39.4404305]}},{"type":"Feature","properties":{"Name":"Àrea 1 - Secundària/Batxillerat","description":"Justicia/Colón/Xàtiva/Alicante/Gibraltar/Vía del Ferrocarril/Giorgeta/Pérez Galdós/Cauce viejo del río/Justicia."},"geometry":{"type":"Polygon","coordinates":[[[-0.395809,39.4749159],[-0.382054,39.4559099],[-0.3807382,39.455284],[-0.3763525,39.4669419],[-0.3750618,39.4672381],[-0.3734285,39.4681634],[-0.37102,39.4697821],[-0.3693625,39.4715001],[-0.3680402,39.4724585],[-0.3673576,39.4726396],[-0.3672094,39.4728295],[-0.3674474,39.4730525],[-0.3713956,39.4771602],[-0.3750644,39.4790338],[-0.3803,39.4812862],[-0.3832403,39.4799427],[-0.3853002,39.4790814],[-0.3891626,39.4776239],[-0.395809,39.4749159]]]}},{"type":"Feature","properties":{"Name":"CENTRE PRIVAT NUESTRA SEÑORA DEL SOCORRO","description":"http://www.ceice.gva.es/es/web/centros-docentes/consulta-general?viewUrl162652993=/abc/i_guiadecentros/es/centro.asp&codi=46010164"},"geometry":{"type":"Point","coordinates":[-0.385853099999963,39.4654847]}},{"type":"Feature","properties":{"Name":"Colegio Inmaculado Corazón de María","description":"Informació del Centre: http://www.ceice.gva.es/es/web/centros-docentes/consulta-general?viewUrl162652993=/abc/i_guiadecentros/es/centro.asp&codi=46010243"},"geometry":{"type":"Point","coordinates":[-0.393460399999981,39.4741579]}},{"type":"Feature","properties":{"Name":"Colegio Gran Asociación","description":"Informació del Centre: http://www.ceice.gva.es/es/web/centros-docentes/consulta-general?viewUrl162652993=/abc/i_guiadecentros/es/centro.asp&codi=46009472"},"geometry":{"type":"Point","coordinates":[-0.377895500000022,39.479752]}},{"type":"Feature","properties":{"Name":"Real Colegio de las Escuelas Pías (PP. Escolapios) 46012136","description":"Guía de Centres Consultar su perfil: http://www.ceice.gva.es/es/web/centros-docentes/consulta-general?viewUrl162652993=/abc/i_guiadecentros/val/centro.asp&codi=46012136"},"geometry":{"type":"Point","coordinates":[-0.3822895,39.4738658]}},{"type":"Feature","properties":{"Name":"Colegio Sagrado Corazón","description":"Informació del Centre: http://www.ceice.gva.es/es/web/centros-docentes/consulta-general?viewUrl162652993=/abc/i_guiadecentros/es/centro.asp&codi=46009460"},"geometry":{"type":"Point","coordinates":[-0.374794400000042,39.478628]}},{"type":"Feature","properties":{"Name":"Colegio Jesús-María","description":"Informació del Centre: http://www.ceice.gva.es/es/web/centros-docentes/consulta-general?viewUrl162652993=/abc/i_guiadecentros/es/centro.asp&codi=46010221"},"geometry":{"type":"Point","coordinates":[-0.387674400000037,39.4730611]}},{"type":"Feature","properties":{"Name":"CENTRE PRIVAT D'EDUCACIÓ INFANTIL, PRIMÀRIA I SECUNDÀRIA\nESCOLÀPIES VALÈNCIA","description":"http://www.ceice.gva.es/es/web/centros-docentes/consulta-general?viewUrl162652993=/abc/i_guiadecentros/es/centro.asp&codi=46010231"},"geometry":{"type":"Point","coordinates":[-0.385845499999959,39.4710103]}},{"type":"Feature","properties":{"Name":"Centro Privado de Enseñanza San Pedro Pascual","description":"http://www.ceice.gva.es/es/web/centros-docentes/consulta-general?viewUrl162652993=/abc/i_guiadecentros/es/centro.asp&codi=46010255"},"geometry":{"type":"Point","coordinates":[-0.392686899999944,39.4734278]}},{"type":"Feature","properties":{"Name":"Centro Privado De Enseñanza Santo Tomás De Villanueva","description":"http://www.ceice.gva.es/es/web/centros-docentes/consulta-general?viewUrl162652993=/abc/i_guiadecentros/es/centro.asp&codi=46010127"},"geometry":{"type":"Point","coordinates":[-0.382588400000031,39.4649774]}},{"type":"Feature","properties":{"Name":"IES Lluís Vives","description":"http://www.ceice.gva.es/es/web/centros-docentes/consulta-general?viewUrl162652993=/abc/i_guiadecentros/es/centro.asp&codi=46012872"},"geometry":{"type":"Point","coordinates":[-0.377732,39.4681702]}},{"type":"Feature","properties":{"Name":"IES Barri del Carme","description":"http://www.ceice.gva.es/es/web/centros-docentes/consulta-general?viewUrl162652993=/abc/i_guiadecentros/es/centro.asp&codi=46020391"},"geometry":{"type":"Point","coordinates":[-0.3817596,39.479613]}},{"type":"Feature","properties":{"Name":"Instituto de Educación Secundaria Abastos","description":"http://www.ceice.gva.es/es/web/centros-docentes/consulta-general?viewUrl162652993=/abc/i_guiadecentros/es/centro.asp&codi=46025040"},"geometry":{"type":"Point","coordinates":[-0.3882149,39.4680183]}},{"type":"Feature","properties":{"Name":"Àrea 2-Secundària/Batxillerat","description":"Cauce viejo del río/límite de Mislata/Límite de Xirivella/Cauce nuevo del río/Campos Crespo/Pío XI/Cuenca/Pérez Galdós/Cauce viejo del río."},"geometry":{"type":"Polygon","coordinates":[[[-0.4128549,39.4631672],[-0.4151132,39.4615031],[-0.4135415,39.4596714],[-0.4057953,39.4489025],[-0.3981564,39.455066],[-0.3954546,39.4570344],[-0.3923278,39.4597091],[-0.3894458,39.4628588],[-0.3880737,39.4643715],[-0.395809,39.4749159],[-0.4056344,39.4731227],[-0.4080913,39.4727418],[-0.4109775,39.47251],[-0.4122596,39.4712511],[-0.4139535,39.4707335],[-0.4156902,39.4698846],[-0.4153562,39.4695822],[-0.4180538,39.469311],[-0.4207513,39.4693047],[-0.4171249,39.4683771],[-0.416213,39.467967],[-0.4152366,39.4673997],[-0.414437,39.4677449],[-0.4144742,39.4669141],[-0.4125102,39.4670248],[-0.4124445,39.4667493],[-0.4117551,39.4665461],[-0.4111919,39.4662557],[-0.4112026,39.465973],[-0.4126188,39.4658053],[-0.4124365,39.4642378],[-0.4128549,39.4631672]]]}},{"type":"Feature","properties":{"Name":"Colegio Jesús - María Fuensanta","description":"http://www.ceice.gva.es/es/web/centros-docentes/consulta-general?viewUrl162652993=/abc/i_guiadecentros/es/centro.asp&codi=46011922"},"geometry":{"type":"Point","coordinates":[-0.4090483,39.4653415]}},{"type":"Feature","properties":{"Name":"Colegio Hermes Sociedad Cooperativa Valenciana","description":"http://www.ceice.gva.es/es/web/centros-docentes/consulta-general?viewUrl162652993=/abc/i_guiadecentros/es/centro.asp&codi=46010772"},"geometry":{"type":"Point","coordinates":[-0.390749,39.462933]}},{"type":"Feature","properties":{"Name":"Colegio La Purisima Franciscanas","description":"http://www.ceice.gva.es/es/web/centros-docentes/consulta-general?viewUrl162652993=/abc/i_guiadecentros/es/centro.asp&codi=46010267"},"geometry":{"type":"Point","coordinates":[-0.404759099999978,39.4644873]}},{"type":"Feature","properties":{"Name":"Centro Privado De Educación Infantil Primaria Y Secundaria Esclavas De María","description":"http://www.ceice.gva.es/es/web/centros-docentes/consulta-general?viewUrl162652993=/abc/i_guiadecentros/es/centro.asp&codi=46010191"},"geometry":{"type":"Point","coordinates":[-0.392944,39.4654886]}},{"type":"Feature","properties":{"Name":"Colegio Pureza De Maria-Cid","description":"http://www.ceice.gva.es/es/web/centros-docentes/consulta-general?viewUrl162652993=/abc/i_guiadecentros/es/centro.asp&codi=46011879"},"geometry":{"type":"Point","coordinates":[-0.409450900000024,39.4702978]}},{"type":"Feature","properties":{"Name":"Centro Privado de Enseñanza Nuestra Señora de Fátima","description":"http://www.ceice.gva.es/es/web/centros-docentes/consulta-general?viewUrl162652993=/abc/i_guiadecentros/es/centro.asp&codi=46010553"},"geometry":{"type":"Point","coordinates":[-0.4045195,39.4681532]}},{"type":"Feature","properties":{"Name":"Som Escola Coop. (Infantil Primaria y ESO)","description":"http://www.ceice.gva.es/es/web/centros-docentes/consulta-general?viewUrl162652993=/abc/i_guiadecentros/es/centro.asp&codi=46011776"},"geometry":{"type":"Point","coordinates":[-0.406156,39.47146]}},{"type":"Feature","properties":{"Name":"Colegio Santa María","description":"http://www.ceice.gva.es/es/web/centros-docentes/consulta-general?viewUrl162652993=/abc/i_guiadecentros/es/centro.asp&codi=46011867"},"geometry":{"type":"Point","coordinates":[-0.406622700000071,39.466307]}},{"type":"Feature","properties":{"Name":"Colegio Claret Fuensanta","description":"http://www.ceice.gva.es/es/web/centros-docentes/consulta-general?viewUrl162652993=/abc/i_guiadecentros/es/centro.asp&codi=46011892"},"geometry":{"type":"Point","coordinates":[-0.40902,39.4654457]}},{"type":"Feature","properties":{"Name":"Instituto de Educación Secundaria Cid Campeador","description":"http://www.ceice.gva.es/es/web/centros-docentes/consulta-general?viewUrl162652993=/abc/i_guiadecentros/es/centro.asp&codi=46012987"},"geometry":{"type":"Point","coordinates":[-0.3995238,39.4655803]}},{"type":"Feature","properties":{"Name":"Instituto de Educación Secundaria Ies Número 26","description":"http://www.ceice.gva.es/es/web/centros-docentes/consulta-general?viewUrl162652993=/abc/i_guiadecentros/es/centro.asp&codi=46018059"},"geometry":{"type":"Point","coordinates":[-0.411377300000026,39.4644571]}},{"type":"Feature","properties":{"Name":"IES Patraix - Vicenta Ferrer Escrivà","description":"http://www.ceice.gva.es/es/web/centros-docentes/consulta-general?viewUrl162652993=/abc/i_guiadecentros/es/centro.asp&codi=46022944"},"geometry":{"type":"Point","coordinates":[-0.396393699999976,39.4606787]}},{"type":"Feature","properties":{"Name":"Àrea 6 - Secundària i Batxillerat","description":"Cauce viejo del río/Avda. Burjassot/Dr Peset Aleixandre/Juan XXIII/Hermanos Machado/Av.Constitución/Límite de Tavernes Blanques/Límite de Alboraia/Alfahuir/Almazora/Vía del ferrocarril/Cauce viejo del río. Incluye edificio de la Polícia Autonòmica (Estación puente de madera)."},"geometry":{"type":"Polygon","coordinates":[[[-0.3864887,39.4976004],[-0.385271,39.4980101],[-0.3823954,39.4902119],[-0.3894179,39.4883188],[-0.3820897,39.4826949],[-0.3802342,39.4830883],[-0.3774581,39.4827727],[-0.3738639,39.4806321],[-0.3705274,39.4863498],[-0.367405,39.4888519],[-0.3571842,39.4943477],[-0.3600349,39.4967312],[-0.3619753,39.4986515],[-0.3639156,39.5002405],[-0.3650635,39.5011907],[-0.366383,39.5022403],[-0.3667531,39.5025755],[-0.3673163,39.5027659],[-0.3674827,39.5030845],[-0.3679709,39.5031963],[-0.3672412,39.5057792],[-0.3702454,39.506607],[-0.3707603,39.5100174],[-0.3669837,39.5124013],[-0.3700737,39.5146526],[-0.3711466,39.5165562],[-0.3720478,39.5180957],[-0.3732279,39.5231771],[-0.3747944,39.5283578],[-0.3738503,39.5338524],[-0.3798584,39.5341172],[-0.3816823,39.5365664],[-0.3843859,39.53885],[-0.3880338,39.5386515],[-0.3955441,39.5373607],[-0.398591,39.5330249],[-0.4027967,39.5367319],[-0.4041271,39.5390486],[-0.4011094,39.541639],[-0.3998865,39.5429214],[-0.4004444,39.5434923],[-0.4023782,39.5438919],[-0.4058451,39.5440008],[-0.4083426,39.5448386],[-0.4071066,39.5515338],[-0.4030465,39.5531105],[-0.4063294,39.558024],[-0.4083143,39.5573375],[-0.4094999,39.5571307],[-0.4118307,39.559484],[-0.4135326,39.5634893],[-0.412541,39.5638949],[-0.4151351,39.565024],[-0.418342,39.5672096],[-0.4200742,39.5700557],[-0.4207129,39.5711135],[-0.4228746,39.5725575],[-0.4247866,39.5678004],[-0.429531,39.5609092],[-0.4269913,39.5593461],[-0.4238723,39.5595696],[-0.422191,39.5582876],[-0.4200376,39.5539283],[-0.4194831,39.5519771],[-0.4155442,39.5444571],[-0.4049979,39.5383266],[-0.404061,39.5365055],[-0.4050982,39.5348499],[-0.4026809,39.5326812],[-0.4013864,39.5328712],[-0.3994911,39.532333],[-0.4000357,39.5282259],[-0.4010391,39.5268968],[-0.4031316,39.5265226],[-0.4052352,39.5229403],[-0.4044841,39.5199608],[-0.4055785,39.516849],[-0.4014338,39.5150941],[-0.4004646,39.5106574],[-0.3978218,39.5084391],[-0.398183,39.5077437],[-0.3997995,39.5081411],[-0.4035469,39.50483],[-0.4037323,39.5019164],[-0.4034885,39.5007246],[-0.4018268,39.4992692],[-0.3992215,39.5002971],[-0.395071,39.5032456],[-0.3932077,39.5033146],[-0.3916878,39.5025226],[-0.3864887,39.4976004]]]}},{"type":"Feature","properties":{"Name":"Districte XVII (Poblats del Nord)","description":"Carpesa, Benifaraig, Massarrojos, Borbotó, Poble Nou, Casas de Bárcena, Mahuella-Tauladella, Rafalell-Vistavella"},"geometry":{"type":"Polygon","coordinates":[[[-0.3605208,39.5178246],[-0.3562292,39.5240483],[-0.354813,39.5239821],[-0.3536972,39.5234193],[-0.3519377,39.5260013],[-0.354298,39.5270606],[-0.3531822,39.5296756],[-0.3537831,39.5298742],[-0.3534827,39.5306686],[-0.3539976,39.5316947],[-0.3547272,39.533151],[-0.3549418,39.5345412],[-0.3552422,39.5360967],[-0.356873,39.536858],[-0.3582033,39.5369242],[-0.3599629,39.5376523],[-0.3626665,39.538579],[-0.3632674,39.5382811],[-0.3639111,39.5384797],[-0.3648123,39.5381818],[-0.3645977,39.5367256],[-0.3619799,39.5355672],[-0.3639111,39.5327538],[-0.3647265,39.5343426],[-0.3667435,39.5330517],[-0.3640827,39.5292453],[-0.3653702,39.5274909],[-0.3630528,39.5267958],[-0.3631815,39.5263985],[-0.3629669,39.5248096],[-0.3630528,39.5232869],[-0.3625378,39.5209034],[-0.3620657,39.5184205],[-0.3605208,39.5178246]]]}},{"type":"Feature","properties":{"Name":"Districte XVII (Poblats del nord)","description":"Carpesa, Benifaraig, Massarrojos, Borbotó, Poble Nou, Casas de Bárcena, Mahuella-Tauladella, Rafalell-Vistavella"},"geometry":{"type":"Polygon","coordinates":[[[-0.3442127,39.5560022],[-0.3448564,39.5542486],[-0.3396637,39.552925],[-0.3391916,39.553289],[-0.3371746,39.5527265],[-0.3386766,39.5502778],[-0.3364021,39.5495167],[-0.3370029,39.5482924],[-0.3403074,39.549616],[-0.3420669,39.547432],[-0.3398782,39.5463068],[-0.3413803,39.5441227],[-0.3347284,39.5419716],[-0.3332693,39.5439241],[-0.3304798,39.5430306],[-0.329879,39.5436263],[-0.3291065,39.543163],[-0.3281624,39.5436263],[-0.3295356,39.5441227],[-0.3330976,39.5449831],[-0.3330118,39.5459428],[-0.3344709,39.5465054],[-0.3317672,39.5517338],[-0.3364021,39.5531897],[-0.3321535,39.5602704],[-0.3336555,39.5609322],[-0.3351146,39.5580868],[-0.337475,39.5587816],[-0.3397495,39.5545795],[-0.3442127,39.5560022]]]}},{"type":"Feature","properties":{"Name":"Institut Educació Secundària El Clot","description":"http://www.ceice.gva.es/es/web/centros-docentes/consulta-general?viewUrl162652993=/abc/i_guiadecentros/es/centro.asp&codi=46017195"},"geometry":{"type":"Point","coordinates":[-0.3795599,39.48935]}},{"type":"Feature","properties":{"Name":"I.E.S. José Ballester Gozalvo","description":"http://www.ceice.gva.es/es/web/centros-docentes/consulta-general?viewUrl162652993=/abc/i_guiadecentros/es/centro.asp&codi=46019763"},"geometry":{"type":"Point","coordinates":[-0.379845100000011,39.4967105]}},{"type":"Feature","properties":{"Name":"I.E.S Orriols","description":"http://www.ceice.gva.es/es/web/centros-docentes/consulta-general?viewUrl162652993=/abc/i_guiadecentros/es/centro.asp&codi=46018138"},"geometry":{"type":"Point","coordinates":[-0.366851,39.4961636]}},{"type":"Feature","properties":{"Name":"Colegio Hermanas Mantellate","description":"http://www.ceice.gva.es/es/web/centros-docentes/consulta-general?viewUrl162652993=/abc/i_guiadecentros/es/centro.asp&codi=46010668"},"geometry":{"type":"Point","coordinates":[-0.385836899999958,39.4864213]}},{"type":"Feature","properties":{"Name":"Centro Educativo Juan Comenius","description":"http://www.ceice.gva.es/es/web/centros-docentes/consulta-general?viewUrl162652993=/abc/i_guiadecentros/es/centro.asp&codi=46017304"},"geometry":{"type":"Point","coordinates":[-0.38429,39.488954]}},{"type":"Feature","properties":{"Name":"Centro Privado de Ed. Infantil, Primaria y Secundaria Luz Casanova","description":"http://www.ceice.gva.es/es/web/centros-docentes/consulta-general?viewUrl162652993=/abc/i_guiadecentros/es/centro.asp&codi=46010620"},"geometry":{"type":"Point","coordinates":[-0.373249200000032,39.4882218]}},{"type":"Feature","properties":{"Name":"Colegio María Auxiliadora","description":"http://www.ceice.gva.es/es/web/centros-docentes/consulta-general?viewUrl162652993=/abc/i_guiadecentros/es/centro.asp&codi=46010796"},"geometry":{"type":"Point","coordinates":[-0.37346070000001,39.4925907]}},{"type":"Feature","properties":{"Name":"Colegio Marni","description":"http://www.ceice.gva.es/es/web/centros-docentes/consulta-general?viewUrl162652993=/abc/i_guiadecentros/es/centro.asp&codi=46012021"},"geometry":{"type":"Point","coordinates":[-0.367889500000047,39.4961503]}},{"type":"Feature","properties":{"Name":"Colegio Mercurio S C L","description":"http://www.ceice.gva.es/es/web/centros-docentes/consulta-general?viewUrl162652993=/abc/i_guiadecentros/es/centro.asp&codi=46010735"},"geometry":{"type":"Point","coordinates":[-0.375087500000063,39.4855171]}},{"type":"Feature","properties":{"Name":"Centro Privado de Enseñanza Santísima Trinidad","description":"http://www.ceice.gva.es/es/web/centros-docentes/consulta-general?viewUrl162652993=/abc/i_guiadecentros/es/centro.asp&codi=46010802"},"geometry":{"type":"Point","coordinates":[-0.3771822,39.4839165]}},{"type":"Feature","properties":{"Name":"Col.legi diocesà Santiago Apòstol","description":"http://www.ceice.gva.es/es/web/centros-docentes/consulta-general?viewUrl162652993=/abc/i_guiadecentros/es/centro.asp&codi=46010826"},"geometry":{"type":"Point","coordinates":[-0.380660300000045,39.4855575]}},{"type":"Feature","properties":{"Name":"Àrea 7 - Secundària/Batxillerat","description":"Avda. del Puerto/Cardenal Benlloch/Clariano/Palancia/Avda.Cataluña/Límite de Alboraia/Ingeniero Fausto Elio/Lluís Peixò/Blas de Lezo/Bulevar de Serrería/Avda. del Puerto."},"geometry":{"type":"Polygon","coordinates":[[[-0.3495404,39.4886942],[-0.3522441,39.4803144],[-0.3538644,39.479458],[-0.3544757,39.4782607],[-0.3516433,39.4773994],[-0.3562781,39.4670636],[-0.3384763,39.4617369],[-0.3367946,39.463386],[-0.3352067,39.4658046],[-0.3335759,39.4753125],[-0.3313308,39.4855221],[-0.3315589,39.4850841],[-0.3330609,39.4839911],[-0.3347346,39.4840904],[-0.3398845,39.4835273],[-0.3418586,39.4837592],[-0.3439185,39.4846204],[-0.3463647,39.4851172],[-0.3489396,39.4873363],[-0.3495404,39.4886942]]]}},{"type":"Feature","properties":{"Name":"Instituto de Educación Secundaria Ies Ramón Llull","description":"http://www.ceice.gva.es/es/web/centros-docentes/consulta-general?viewUrl162652993=/abc/i_guiadecentros/es/centro.asp&codi=46017687"},"geometry":{"type":"Point","coordinates":[-0.346218799999974,39.4759614]}},{"type":"Feature","properties":{"Name":"Ies Cabanyal","description":"http://www.ceice.gva.es/es/web/centros-docentes/consulta-general?viewUrl162652993=/abc/i_guiadecentros/es/centro.asp&codi=46013050"},"geometry":{"type":"Point","coordinates":[-0.340162,39.4755166]}},{"type":"Feature","properties":{"Name":"IES Sorolla","description":"http://www.ceice.gva.es/es/web/centros-docentes/consulta-general?viewUrl162652993=/abc/i_guiadecentros/es/centro.asp&codi=46013098"},"geometry":{"type":"Point","coordinates":[-0.3386061,39.4673708]}},{"type":"Feature","properties":{"Name":"IES Serpis","description":"http://www.ceice.gva.es/es/web/centros-docentes/consulta-general?viewUrl162652993=/abc/i_guiadecentros/es/centro.asp&codi=46022646"},"geometry":{"type":"Point","coordinates":[-0.338221100000055,39.4735063]}},{"type":"Feature","properties":{"Name":"COLEGIO ENGEBA","description":"http://www.ceice.gva.es/es/web/centros-docentes/consulta-general?viewUrl162652993=/abc/i_guiadecentros/es/centro.asp&codi=46011223"},"geometry":{"type":"Point","coordinates":[-0.3524536,39.4672909]}},{"type":"Feature","properties":{"Name":"Colegio La Anunciación","description":"http://www.ceice.gva.es/es/web/centros-docentes/consulta-general?viewUrl162652993=/abc/i_guiadecentros/es/centro.asp&codi=46011511"},"geometry":{"type":"Point","coordinates":[-0.344957900000054,39.4642685]}},{"type":"Feature","properties":{"Name":"Colegio Santa Ana .","description":"http://www.ceice.gva.es/es/web/centros-docentes/consulta-general?viewUrl162652993=/abc/i_guiadecentros/es/centro.asp&codi=46011508"},"geometry":{"type":"Point","coordinates":[-0.353701499999943,39.4673321]}},{"type":"Feature","properties":{"Name":"Àrea 8 - Secundària/Batxillerat","description":"Serreria, M. Blas de Lezo, Lluís Peixo, Ingeniero Fausto Elio, Límite Alboraya, Playa, Dr. Marcos Sopena, JJ Domine, Av. Puerto, Serrería, Incluye Recinto del Puerto"},"geometry":{"type":"Polygon","coordinates":[[[-0.3384763,39.4617369],[-0.3355044,39.4608671],[-0.3311002,39.4597116],[-0.3307757,39.4606248],[-0.3298503,39.461273],[-0.3293997,39.4615629],[-0.3284341,39.461654],[-0.3261381,39.4616374],[-0.324915,39.4602873],[-0.3234988,39.4609416],[-0.3226995,39.4612854],[-0.321235,39.4615133],[-0.3164177,39.4612399],[-0.3163103,39.4628468],[-0.321031,39.463294],[-0.3218036,39.469622],[-0.3224474,39.4784007],[-0.3228765,39.4843629],[-0.3258806,39.4842304],[-0.3281551,39.4843297],[-0.329743,39.4848597],[-0.3313308,39.4855221],[-0.3320175,39.4823093],[-0.3325754,39.4801562],[-0.3331333,39.4770094],[-0.3335624,39.4749887],[-0.3339916,39.4725042],[-0.3344207,39.4707815],[-0.3347641,39.4688269],[-0.3350216,39.4669054],[-0.3354078,39.465547],[-0.3361374,39.4642218],[-0.3371352,39.4629462],[-0.3384763,39.4617369]]]}},{"type":"Feature","properties":{"Name":"Colegio Parroquial Diocesano Santiago Apóstol (Comunidad de aprendizaje)","description":"http://www.ceice.gva.es/es/web/centros-docentes/consulta-general?viewUrl162652993=/abc/i_guiadecentros/es/centro.asp&codi=46011624"},"geometry":{"type":"Point","coordinates":[-0.32976,39.47403]}},{"type":"Feature","properties":{"Name":"Centro Concertado de Enseñanza Santa Magdalena Sofía","description":null},"geometry":{"type":"Point","coordinates":[-0.339526699999965,39.4468626]}},{"type":"Feature","properties":{"Name":"Institut d'Educació Secundària Ies El Grau","description":"http://www.ceice.gva.es/es/web/centros-docentes/consulta-general?viewUrl162652993=/abc/i_guiadecentros/es/centro.asp&codi=46015290"},"geometry":{"type":"Point","coordinates":[-0.33185,39.462164]}},{"type":"Feature","properties":{"Name":"IES Isabel de Villena","description":"http://www.ceice.gva.es/es/web/centros-docentes/consulta-general?viewUrl162652993=/abc/i_guiadecentros/es/centro.asp&codi=46013086"},"geometry":{"type":"Point","coordinates":[-0.325413600000047,39.4779255]}},{"type":"Feature","properties":{"Name":"Colegio Chiner Villarroya","description":"http://www.ceice.gva.es/es/web/centros-docentes/consulta-general?viewUrl162652993=/abc/i_guiadecentros/es/centro.asp&codi=46011481"},"geometry":{"type":"Point","coordinates":[-0.333361,39.4730068]}},{"type":"Feature","properties":{"Name":"Escuelas Pías Malvarrosa","description":"http://www.ceice.gva.es/es/web/centros-docentes/consulta-general?viewUrl162652993=/abc/i_guiadecentros/es/centro.asp&codi=46011387"},"geometry":{"type":"Point","coordinates":[-0.329803500000025,39.4820535]}},{"type":"Feature","properties":{"Name":"la purísima grao","description":"http://www.ceice.gva.es/es/web/centros-docentes/consulta-general?viewUrl162652993=/abc/i_guiadecentros/es/centro.asp&codi=46011314"},"geometry":{"type":"Point","coordinates":[-0.3335095,39.4616908]}},{"type":"Feature","properties":{"Name":"Colegio Hogar Nuestra Señora del Rosario","description":"http://www.ceice.gva.es/es/web/centros-docentes/consulta-general?viewUrl162652993=/abc/i_guiadecentros/es/centro.asp&codi=46013074"},"geometry":{"type":"Point","coordinates":[-0.332607,39.46524]}},{"type":"Feature","properties":{"Name":"Colegio Pureza de María Grao","description":"http://www.ceice.gva.es/es/web/centros-docentes/consulta-general?viewUrl162652993=/abc/i_guiadecentros/es/centro.asp&codi=46011478"},"geometry":{"type":"Point","coordinates":[-0.332039900000041,39.4658243]}},{"type":"Feature","properties":{"Name":"Àrea 10 - Secundària/Batxillerat","description":"Hermanos Machado/Juan XXIII/Peset Aleixandre/Avda. Burjassot/Cauce Viejo del río/Límite distrito municipal 16/Hermanos Machado. Se incluyen Benimamet y Beniferri."},"geometry":{"type":"Polygon","coordinates":[[[-0.425194,39.494331],[-0.4216965,39.4956227],[-0.4184778,39.4931885],[-0.4165195,39.4956024],[-0.4108703,39.4958304],[-0.4049583,39.4874603],[-0.4072328,39.4809021],[-0.4056878,39.4747243],[-0.3975991,39.4765048],[-0.3888335,39.4797136],[-0.3827338,39.4829079],[-0.3895087,39.4886195],[-0.3821755,39.4901746],[-0.3850682,39.4973778],[-0.3917219,39.50184],[-0.3944278,39.5027257],[-0.3985477,39.4997454],[-0.4019928,39.4982595],[-0.4044015,39.4971956],[-0.4122336,39.5036033],[-0.4180272,39.5056231],[-0.4227479,39.5071462],[-0.4230268,39.5060535],[-0.4241855,39.5056479],[-0.4256876,39.5071296],[-0.4280587,39.5067076],[-0.4317387,39.5058715],[-0.4285843,39.4972453],[-0.425194,39.494331]]]}},{"type":"Feature","properties":{"Name":"IES Conselleria","description":"http://www.ceice.gva.es/es/web/centros-docentes/consulta-general?viewUrl162652993=/abc/i_guiadecentros/es/centro.asp&codi=46022257"},"geometry":{"type":"Point","coordinates":[-0.393131,39.485209]}},{"type":"Feature","properties":{"Name":"IES Campanar","description":"http://www.ceice.gva.es/es/web/centros-docentes/consulta-general?viewUrl162652993=/abc/i_guiadecentros/es/centro.asp&codi=46015711"},"geometry":{"type":"Point","coordinates":[-0.398581499999977,39.4810428]}},{"type":"Feature","properties":{"Name":"IES Benicalap","description":"http://www.ceice.gva.es/es/web/centros-docentes/consulta-general?viewUrl162652993=/abc/i_guiadecentros/es/centro.asp&codi=46023547"},"geometry":{"type":"Point","coordinates":[-0.4001912,39.4963511]}},{"type":"Feature","properties":{"Name":"Institut d'Educació Secundària Ies Benimàmet","description":"http://www.ceice.gva.es/es/web/centros-docentes/consulta-general?viewUrl162652993=/abc/i_guiadecentros/es/centro.asp&codi=46018916"},"geometry":{"type":"Point","coordinates":[-0.4239503,39.5041014]}},{"type":"Feature","properties":{"Name":"Colegio Argos","description":"http://www.ceice.gva.es/es/web/centros-docentes/consulta-general?viewUrl162652993=/abc/i_guiadecentros/es/centro.asp&codi=46014212"},"geometry":{"type":"Point","coordinates":[-0.398789099999931,39.4973669]}},{"type":"Feature","properties":{"Name":"Colegio El Ave María","description":"http://www.ceice.gva.es/es/web/centros-docentes/consulta-general?viewUrl162652993=/abc/i_guiadecentros/es/centro.asp&codi=46009034"},"geometry":{"type":"Point","coordinates":[-0.424043500000039,39.500749]}},{"type":"Feature","properties":{"Name":"Centro Privado de Enseñanza María Inmaculada","description":"http://www.ceice.gva.es/es/web/centros-docentes/consulta-general?viewUrl162652993=/abc/i_guiadecentros/es/centro.asp&codi=46010747"},"geometry":{"type":"Point","coordinates":[-0.387608699999987,39.4835379]}},{"type":"Feature","properties":{"Name":"Centro Concertado de Enseñanza Nuestra Señora del Carmen y San Vicente de Paúl","description":"http://www.ceice.gva.es/es/web/centros-docentes/consulta-general?viewUrl162652993=/abc/i_guiadecentros/es/centro.asp&codi=46010723"},"geometry":{"type":"Point","coordinates":[-0.391536200000019,39.490789]}},{"type":"Feature","properties":{"Name":"Centro Privado de Enseñanza Niño Jesús","description":"http://www.ceice.gva.es/es/web/centros-docentes/consulta-general?viewUrl162652993=/abc/i_guiadecentros/es/centro.asp&codi=46011961"},"geometry":{"type":"Point","coordinates":[-0.402034,39.48999]}},{"type":"Feature","properties":{"Name":"Colegio Sagrada Familia","description":"http://www.ceice.gva.es/es/web/centros-docentes/consulta-general?viewUrl162652993=/abc/i_guiadecentros/es/centro.asp&codi=46012011"},"geometry":{"type":"Point","coordinates":[-0.401847699999962,39.4886241]}},{"type":"Feature","properties":{"Name":"Colegio de Fomento Vilavella","description":"http://www.ceice.gva.es/es/web/centros-docentes/consulta-general?viewUrl162652993=/abc/i_guiadecentros/es/centro.asp&codi=46016658"},"geometry":{"type":"Point","coordinates":[-0.392803700000059,39.479054]}},{"type":"Feature","properties":{"Name":"Escuelas San Jose, Jesuitas","description":"http://www.ceice.gva.es/es/web/centros-docentes/consulta-general?viewUrl162652993=/abc/i_guiadecentros/es/centro.asp&codi=46012094"},"geometry":{"type":"Point","coordinates":[-0.397610699999973,39.4867654]}},{"type":"Feature","properties":{"Name":"Colegio Diocesano San Roque","description":"http://www.ceice.gva.es/es/web/centros-docentes/consulta-general?viewUrl162652993=/abc/i_guiadecentros/es/centro.asp&codi=46012070"},"geometry":{"type":"Point","coordinates":[-0.390526,39.4908615]}},{"type":"Feature","properties":{"Name":"Colegio Diocesano San Juan Bosco","description":"http://www.ceice.gva.es/es/web/centros-docentes/consulta-general?viewUrl162652993=/abc/i_guiadecentros/es/centro.asp&codi=46010863"},"geometry":{"type":"Point","coordinates":[-0.384517100000039,39.482844]}},{"type":"Feature","properties":{"Name":"Àrea 9 - Secundària/Batxillerat","description":"Cauce viejo del río/Eduardo Boscà/Avda del Puerto/Ingeniero Manuel Soto/Nazaret/Vía del Ferrocarril/Cauce viejo del río. Incluye Ciutat de les Arts i les Ciències i l'Institut de Biomecànica i tambè el recinte del Port."},"geometry":{"type":"Polygon","coordinates":[[[-0.3566479,39.467081],[-0.3580205,39.4639495],[-0.3574839,39.4628208],[-0.3566685,39.4617916],[-0.3537395,39.4600044],[-0.350301,39.4576528],[-0.3477639,39.4560631],[-0.3463656,39.4551772],[-0.3441918,39.454491],[-0.3416747,39.4546663],[-0.3415591,39.4393779],[-0.3426965,39.438425],[-0.343147,39.4370743],[-0.3437049,39.4343067],[-0.3424175,39.4293016],[-0.3327371,39.4263335],[-0.3325409,39.4315198],[-0.3300027,39.4305556],[-0.3303339,39.4278316],[-0.3261898,39.4266263],[-0.3133536,39.4230213],[-0.3092231,39.4305954],[-0.3128921,39.4332799],[-0.3151666,39.4304286],[-0.3305303,39.4354005],[-0.3280407,39.4401734],[-0.3205305,39.4375882],[-0.3176123,39.4439847],[-0.3250366,39.4463709],[-0.325337,39.4498174],[-0.3213888,39.4482598],[-0.3203159,39.449983],[-0.3262383,39.4519713],[-0.3261524,39.4526838],[-0.3256375,39.4525512],[-0.3254443,39.4532139],[-0.3237921,39.4528329],[-0.3226763,39.4540258],[-0.3237063,39.4544897],[-0.326088,39.4551441],[-0.3282123,39.4561962],[-0.3297895,39.4569749],[-0.33068,39.4584659],[-0.3313574,39.459811],[-0.3346926,39.4605865],[-0.3371388,39.4612823],[-0.3566479,39.467081]]]}},{"type":"Feature","properties":{"Name":"Institut d'Educació Secundària Ies Districte Marítim","description":"http://www.ceice.gva.es/es/web/centros-docentes/consulta-general?viewUrl162652993=/abc/i_guiadecentros/es/centro.asp&codi=46015708"},"geometry":{"type":"Point","coordinates":[-0.344186400000012,39.4597136]}},{"type":"Feature","properties":{"Name":"IES Balears","description":"http://www.ceice.gva.es/es/web/centros-docentes/consulta-general?viewUrl162652993=/abc/i_guiadecentros/es/centro.asp&codi=46018552"},"geometry":{"type":"Point","coordinates":[-0.341188500000044,39.4588061]}},{"type":"Feature","properties":{"Name":"Colegio Ave María de Peñarrocha","description":"http://www.ceice.gva.es/es/web/centros-docentes/consulta-general?viewUrl162652993=/abc/i_guiadecentros/es/centro.asp&codi=46011612"},"geometry":{"type":"Point","coordinates":[-0.354084400000033,39.4611759]}},{"type":"Feature","properties":{"Name":"CENTRE PRIVAT D'EDUCACIÓ INFANTIL, PRIMÀRIA I SECUNDÀRIA\nNUESTRA SEÑORA DE LOS DESAMPARADOS","description":"http://www.ceice.gva.es/es/web/centros-docentes/consulta-general?viewUrl162652993=/abc/i_guiadecentros/es/centro.asp&codi=46011661"},"geometry":{"type":"Point","coordinates":[-0.332959599999981,39.449295]}},{"type":"Feature","properties":{"Name":"Centro Concertado de Enseñanza Santa Magdalena Sofía","description":"http://www.ceice.gva.es/es/web/centros-docentes/consulta-general?viewUrl162652993=/abc/i_guiadecentros/es/centro.asp&codi=46011697"},"geometry":{"type":"Point","coordinates":[-0.339526699999965,39.4468626]}},{"type":"Feature","properties":{"Name":"Colegio Trafalgar","description":"http://www.ceice.gva.es/es/web/centros-docentes/consulta-general?viewUrl162652993=/abc/i_guiadecentros/es/centro.asp&codi=46011491"},"geometry":{"type":"Point","coordinates":[-0.342822100000035,39.4614489]}},{"type":"Feature","properties":{"Name":"Àrea 1 - Secundària/Batxillerat","description":"Justicia/Colón/Xàtiva/Alicante/Gibraltar/Vía del Ferrocarril/Giorgeta/Pérez Galdós/Cauce viejo del río/Justicia."},"geometry":{"type":"Polygon","coordinates":[[[-0.395809,39.4749159],[-0.382054,39.4559099],[-0.3807382,39.455284],[-0.3763525,39.4669419],[-0.3750618,39.4672381],[-0.3734285,39.4681634],[-0.37102,39.4697821],[-0.3693625,39.4715001],[-0.3680402,39.4724585],[-0.3673576,39.4726396],[-0.3672094,39.4728295],[-0.3674474,39.4730525],[-0.3713956,39.4771602],[-0.3750644,39.4790338],[-0.3803,39.4812862],[-0.3832403,39.4799427],[-0.3853002,39.4790814],[-0.3891626,39.4776239],[-0.395809,39.4749159]]]}},{"type":"Feature","properties":{"Name":"CENTRE PRIVAT NUESTRA SEÑORA DEL SOCORRO","description":"http://www.ceice.gva.es/es/web/centros-docentes/consulta-general?viewUrl162652993=/abc/i_guiadecentros/es/centro.asp&codi=46010164"},"geometry":{"type":"Point","coordinates":[-0.385853099999963,39.4654847]}},{"type":"Feature","properties":{"Name":"Colegio Inmaculado Corazón de María","description":"Informació del Centre: http://www.ceice.gva.es/es/web/centros-docentes/consulta-general?viewUrl162652993=/abc/i_guiadecentros/es/centro.asp&codi=46010243"},"geometry":{"type":"Point","coordinates":[-0.393460399999981,39.4741579]}},{"type":"Feature","properties":{"Name":"Colegio Gran Asociación","description":"Informació del Centre: http://www.ceice.gva.es/es/web/centros-docentes/consulta-general?viewUrl162652993=/abc/i_guiadecentros/es/centro.asp&codi=46009472"},"geometry":{"type":"Point","coordinates":[-0.377895500000022,39.479752]}},{"type":"Feature","properties":{"Name":"Real Colegio de las Escuelas Pías (PP. Escolapios) 46012136","description":"Guía de Centres Consultar su perfil: http://www.ceice.gva.es/es/web/centros-docentes/consulta-general?viewUrl162652993=/abc/i_guiadecentros/val/centro.asp&codi=46012136"},"geometry":{"type":"Point","coordinates":[-0.3822895,39.4738658]}},{"type":"Feature","properties":{"Name":"Colegio Sagrado Corazón","description":"Informació del Centre: http://www.ceice.gva.es/es/web/centros-docentes/consulta-general?viewUrl162652993=/abc/i_guiadecentros/es/centro.asp&codi=46009460"},"geometry":{"type":"Point","coordinates":[-0.374794400000042,39.478628]}},{"type":"Feature","properties":{"Name":"Colegio Jesús-María","description":"Informació del Centre: http://www.ceice.gva.es/es/web/centros-docentes/consulta-general?viewUrl162652993=/abc/i_guiadecentros/es/centro.asp&codi=46010221"},"geometry":{"type":"Point","coordinates":[-0.387674400000037,39.4730611]}},{"type":"Feature","properties":{"Name":"CENTRE PRIVAT D'EDUCACIÓ INFANTIL, PRIMÀRIA I SECUNDÀRIA\nESCOLÀPIES VALÈNCIA","description":"http://www.ceice.gva.es/es/web/centros-docentes/consulta-general?viewUrl162652993=/abc/i_guiadecentros/es/centro.asp&codi=46010231"},"geometry":{"type":"Point","coordinates":[-0.385845499999959,39.4710103]}},{"type":"Feature","properties":{"Name":"Centro Privado de Enseñanza San Pedro Pascual","description":"http://www.ceice.gva.es/es/web/centros-docentes/consulta-general?viewUrl162652993=/abc/i_guiadecentros/es/centro.asp&codi=46010255"},"geometry":{"type":"Point","coordinates":[-0.392686899999944,39.4734278]}},{"type":"Feature","properties":{"Name":"Centro Privado De Enseñanza Santo Tomás De Villanueva","description":"http://www.ceice.gva.es/es/web/centros-docentes/consulta-general?viewUrl162652993=/abc/i_guiadecentros/es/centro.asp&codi=46010127"},"geometry":{"type":"Point","coordinates":[-0.382588400000031,39.4649774]}},{"type":"Feature","properties":{"Name":"IES Lluís Vives","description":"http://www.ceice.gva.es/es/web/centros-docentes/consulta-general?viewUrl162652993=/abc/i_guiadecentros/es/centro.asp&codi=46012872"},"geometry":{"type":"Point","coordinates":[-0.377732,39.4681702]}},{"type":"Feature","properties":{"Name":"IES Barri del Carme","description":"http://www.ceice.gva.es/es/web/centros-docentes/consulta-general?viewUrl162652993=/abc/i_guiadecentros/es/centro.asp&codi=46020391"},"geometry":{"type":"Point","coordinates":[-0.3817596,39.479613]}},{"type":"Feature","properties":{"Name":"Instituto de Educación Secundaria Abastos","description":"http://www.ceice.gva.es/es/web/centros-docentes/consulta-general?viewUrl162652993=/abc/i_guiadecentros/es/centro.asp&codi=46025040"},"geometry":{"type":"Point","coordinates":[-0.3882149,39.4680183]}},{"type":"Feature","properties":{"Name":"Àrea 3-Secundària/Batxillerat","description":"Límits: Campos Crespo/Pío XI/Cuenca/Poeta Federico García Lorca/Cauce nuevo del río/Campos Crespo. S'inclou també, Faitanar i el Barri de la Torre."},"geometry":{"type":"Polygon","coordinates":[[[-0.394994,39.4573729],[-0.395498,39.4568097],[-0.3961219,39.4562028],[-0.3981187,39.4548009],[-0.3989249,39.453958],[-0.3993879,39.4536618],[-0.405659,39.4486423],[-0.400611,39.4430241],[-0.39523,39.4402226],[-0.3931805,39.4394944],[-0.3905197,39.4387818],[-0.386671,39.4383469],[-0.3848182,39.4426927],[-0.3833669,39.4453094],[-0.3807566,39.4550866],[-0.3820326,39.455943],[-0.3880737,39.4643715],[-0.3898859,39.4619592],[-0.3907178,39.4612565],[-0.3917775,39.4602094],[-0.3926507,39.4593213],[-0.3935239,39.4585989],[-0.3938612,39.4581445],[-0.394994,39.4573729]]]}},{"type":"Feature","properties":{"Name":"Col·legi Públic José Soto Micó","description":"http://www.ceice.gva.es/es/web/centros-docentes/consulta-general?viewUrl162652993=/abc/i_guiadecentros/es/centro.asp&codi=46013451"},"geometry":{"type":"Point","coordinates":[-0.389975,39.4502588]}},{"type":"Feature","properties":{"Name":"Àrea 3-Secundària/Batxillerat","description":"Faitanar i Barri de La Torre"},"geometry":{"type":"Polygon","coordinates":[[[-0.3872154,39.4360331],[-0.3960989,39.4378229],[-0.4042528,39.4427281],[-0.4097889,39.4500189],[-0.4112051,39.4504166],[-0.4134367,39.4488922],[-0.424423,39.4418001],[-0.4286716,39.4391155],[-0.4286287,39.4385852],[-0.4257963,39.4362651],[-0.4226205,39.4358674],[-0.4192731,39.4357017],[-0.4136083,39.4362651],[-0.410733,39.436464],[-0.4075573,39.4362983],[-0.4057119,39.435105],[-0.4001329,39.4326191],[-0.3983305,39.4310612],[-0.3925798,39.4295695],[-0.3898332,39.4295695],[-0.3872154,39.4360331]]]}},{"type":"Feature","properties":{"Name":"Colegio San Marcelino","description":"http://www.ceice.gva.es/es/web/centros-docentes/consulta-general?viewUrl162652993=/abc/i_guiadecentros/es/centro.asp&codi=46011910"},"geometry":{"type":"Point","coordinates":[-0.391518099999985,39.4434031]}},{"type":"Feature","properties":{"Name":"Colegio Luis De Santangel","description":"http://www.ceice.gva.es/es/web/centros-docentes/consulta-general?viewUrl162652993=/abc/i_guiadecentros/es/centro.asp&codi=46009964"},"geometry":{"type":"Point","coordinates":[-0.3868665,39.452662]}},{"type":"Feature","properties":{"Name":"Colegio Oller 2","description":"http://www.ceice.gva.es/es/web/centros-docentes/consulta-general?viewUrl162652993=/abc/i_guiadecentros"},"geometry":{"type":"Point","coordinates":[-0.391224,39.454298]}},{"type":"Feature","properties":{"Name":"Centro Concertado Concha Espina II","description":"http://www.ceice.gva.es/es/web/centros-docentes/consulta-general?viewUrl162652993=/abc/i_guiadecentros/es/centro.asp&codi=46015851"},"geometry":{"type":"Point","coordinates":[-0.385042500000054,39.4535074]}},{"type":"Feature","properties":{"Name":"IES Juan de Garay","description":"http://www.ceice.gva.es/es/web/centros-docentes/consulta-general?viewUrl162652993=/abc/i_guiadecentros/es/centro.asp&codi=46012963"},"geometry":{"type":"Point","coordinates":[-0.39574760000005,39.4548243]}},{"type":"Feature","properties":{"Name":"Ies Joanot Martorell","description":"http://www.ceice.gva.es/es/web/centros-docentes/consulta-general?viewUrl162652993=/abc/i_guiadecentros/es/centro.asp&codi=46012999"},"geometry":{"type":"Point","coordinates":[-0.391736900000069,39.4404305]}},{"type":"Feature","properties":{"Name":"Àrea 4-A - Secundària/Batxillerat","description":"Ausias March/Peris i Valero/Vía del Ferrocarril/Gibraltar/ Alicante/Xàtiva/ Colón/ Justicia/Cauce viejo del río/Vía del Ferrocarril/Cauce Nuevo del río/Avda. Ausias March.  Incluye Ciutat de les Arts i les Ciències i el Institut de Biomecànica."},"geometry":{"type":"Polygon","coordinates":[[[-0.3698273,39.436671],[-0.3670261,39.4364876],[-0.3620167,39.4358757],[-0.3582402,39.4348813],[-0.3424175,39.4293016],[-0.3435315,39.4320747],[-0.3438432,39.434903],[-0.3424064,39.4387034],[-0.3413017,39.4394773],[-0.3413314,39.4398529],[-0.3414173,39.4537717],[-0.3462239,39.4541693],[-0.3489705,39.4552297],[-0.3518887,39.4566877],[-0.3543778,39.4585432],[-0.3577252,39.4596035],[-0.3606121,39.4624471],[-0.3611577,39.4640814],[-0.3626221,39.4669362],[-0.3647733,39.4699235],[-0.3666958,39.4729055],[-0.3684104,39.4723969],[-0.3713075,39.4695703],[-0.374988,39.4672977],[-0.3762666,39.4671407],[-0.377734,39.4629219],[-0.3806414,39.4551352],[-0.3755344,39.4571348],[-0.3682824,39.4463487],[-0.3698273,39.436671]]]}},{"type":"Feature","properties":{"Name":"Centro Privado de Enseñanza San José Hermanas Franciscanas de la Inmaculada","description":"Informació del Centre: http://www.ceice.gva.es/es/web/centros-docentes/consulta-general?viewUrl162652993=/abc/i_guiadecentros/es/centro.asp&codi=46009708"},"geometry":{"type":"Point","coordinates":[-0.368969200000038,39.4631532]}},{"type":"Feature","properties":{"Name":"Colegio Sagrado Corazón Hermanos Maristas","description":"Informació del Centre: http://www.ceice.gva.es/es/web/centros-docentes/consulta-general?viewUrl162652993=/abc/i_guiadecentros/es/centro.asp&codi=46009733"},"geometry":{"type":"Point","coordinates":[-0.363072800000054,39.4648954]}},{"type":"Feature","properties":{"Name":"Escuela de Artesanos Fundación de la Comunidad Valenciana","description":"Més Informació: http://www.ceice.gva.es/es/web/centros-docentes/consulta-general?viewUrl162652993=/abc/i_guiadecentros/es/centro.asp&codi=46012938"},"geometry":{"type":"Point","coordinates":[-0.369389400000045,39.4638476]}},{"type":"Feature","properties":{"Name":"Colegio Nuestra Señora de Loreto - FESD","description":"Informació del Centre: http://www.ceice.gva.es/es/web/centros-docentes/consulta-general?viewUrl162652993=/abc/i_guiadecentros/es/centro.asp&codi=46009721"},"geometry":{"type":"Point","coordinates":[-0.362124399999971,39.4636743]}},{"type":"Feature","properties":{"Name":"Colegio Liceo Corbí","description":"http://www.ceice.gva.es/es/web/centros-docentes/consulta-general?viewUrl162652993=/abc/i_guiadecentros/es/centro.asp&codi=46009812"},"geometry":{"type":"Point","coordinates":[-0.3631464,39.460142]}},{"type":"Feature","properties":{"Name":"Centro de Estudios García Broch","description":"Informació del Centre: http://www.ceice.gva.es/es/web/centros-docentes/consulta-general?viewUrl162652993=/abc/i_guiadecentros/es/centro.asp&codi=46009654"},"geometry":{"type":"Point","coordinates":[-0.367298,39.4632195]}},{"type":"Feature","properties":{"Name":"Colegio San Juan Bosco - Salesianos Valencia SJB","description":"http://www.ceice.gva.es/es/web/centros-docentes/consulta-general?viewUrl162652993=/abc/i_guiadecentros/es/centro.asp&codi=46013116"},"geometry":{"type":"Point","coordinates":[-0.370241,39.453219]}},{"type":"Feature","properties":{"Name":"INSTITUT EDUCACIÓ SECUNDÀRIA SAN VICENTE FERRER","description":"http://www.ceice.gva.es/es/web/centros-docentes/consulta-general?viewUrl162652993=/abc/i_guiadecentros/es/centro.asp&codi=46012902"},"geometry":{"type":"Point","coordinates":[-0.367969200000061,39.4648225]}},{"type":"Feature","properties":{"Name":"IES Jordi de Sant Jordi","description":"http://www.ceice.gva.es/es/web/centros-docentes/consulta-general?viewUrl162652993=/abc/i_guiadecentros/es/centro.asp&codi=46012951"},"geometry":{"type":"Point","coordinates":[-0.363609200000042,39.4528138]}},{"type":"Feature","properties":{"Name":"IES Font de Sant Lluís","description":"http://www.ceice.gva.es/es/web/centros-docentes/consulta-general?viewUrl162652993=/abc/i_guiadecentros/es/centro.asp&codi=46014224"},"geometry":{"type":"Point","coordinates":[-0.3642489,39.4543904]}},{"type":"Feature","properties":{"Name":"Àrea 4-B - Secundària/Batxillerat","description":"Avda. Ausias March/Peris i Valero/Poeta Federico García Lorca/Límite de Sedaví/Límite de El Perelló/Playa/Cauce nuevo del río/Avda. Ausías March."},"geometry":{"type":"Polygon","coordinates":[[[-0.3693124,39.4413111],[-0.3691719,39.4419893],[-0.3683683,39.4461499],[-0.3756203,39.456936],[-0.3807382,39.455284],[-0.3833669,39.4453094],[-0.3872154,39.4360331],[-0.388233,39.4335241],[-0.3873961,39.4328777],[-0.3853791,39.4321982],[-0.3830268,39.4308086],[-0.3774478,39.4273612],[-0.3753799,39.4267453],[-0.3728478,39.426331],[-0.3721827,39.4259829],[-0.3729122,39.4247895],[-0.3646296,39.4210434],[-0.3648656,39.4199825],[-0.3617788,39.419195],[-0.3600085,39.4196674],[-0.3601051,39.419999],[-0.3586889,39.4202062],[-0.3587103,39.4205874],[-0.3593755,39.4208443],[-0.3591824,39.4221041],[-0.3578949,39.4220792],[-0.3574658,39.4229826],[-0.3502131,39.4222201],[-0.3494903,39.4155571],[-0.3515515,39.3994336],[-0.3356299,39.3821207],[-0.3544451,39.3631218],[-0.3542735,39.3621928],[-0.3575351,39.3619273],[-0.3625132,39.3613964],[-0.3661181,39.3602019],[-0.3671481,39.3574147],[-0.3719546,39.3564856],[-0.3771044,39.35476],[-0.3807093,39.3546273],[-0.3831126,39.3519726],[-0.3846575,39.3494504],[-0.3892924,39.3467955],[-0.3954722,39.344937],[-0.3971888,39.3414853],[-0.3972651,39.338429],[-0.3956439,39.3363075],[-0.3962351,39.3323215],[-0.3965022,39.3284737],[-0.3969218,39.3251512],[-0.3965785,39.3193082],[-0.3940989,39.3161236],[-0.3917719,39.3137303],[-0.3862025,39.3129362],[-0.381911,39.313069],[-0.3791644,39.3097485],[-0.3742625,39.3062924],[-0.367396,39.3001821],[-0.357783,39.2975253],[-0.3361537,39.3015105],[-0.3185281,39.3026151],[-0.3157815,39.3034785],[-0.3130349,39.3032128],[-0.3052243,39.2992277],[-0.2927789,39.283418],[-0.2789602,39.279166],[-0.2750518,39.2791933],[-0.2977111,39.3199749],[-0.3156497,39.3592729],[-0.3280093,39.395365],[-0.3324725,39.4124094],[-0.3342749,39.4233501],[-0.3424175,39.4293016],[-0.3444888,39.4280904],[-0.3460223,39.4285391],[-0.3491871,39.4296215],[-0.3580049,39.4327825],[-0.3703531,39.4345942],[-0.3693124,39.4413111]]]}},{"type":"Feature","properties":{"Name":"IES Malilla","description":"http://www.ceice.gva.es/es/web/centros-docentes/consulta-general?viewUrl162652993=/abc/i_guiadecentros/es/centro.asp&codi=46023870"},"geometry":{"type":"Point","coordinates":[-0.379642500000045,39.4521217]}},{"type":"Feature","properties":{"Name":"IES El Ravatxol","description":"http://www.ceice.gva.es/es/web/centros-docentes/consulta-general?viewUrl162652993=/abc/i_guiadecentros/es/centro.asp&codi=46022579"},"geometry":{"type":"Point","coordinates":[-0.361486900000045,39.4268112]}},{"type":"Feature","properties":{"Name":"INSTITUT EDUCACIÓ SECUNDÀRIA EL SALER","description":"http://www.ceice.gva.es/es/web/centros-docentes/consulta-general?viewUrl162652993=/abc/i_guiadecentros/es/centro.asp&codi=46022932"},"geometry":{"type":"Point","coordinates":[-0.331410900000037,39.3816566]}},{"type":"Feature","properties":{"Name":"Academia Jardín","description":"http://www.ceice.gva.es/es/web/centros-docentes/consulta-general?viewUrl162652993=/abc/i_guiadecentros/es/centro.asp&codi=46009903"},"geometry":{"type":"Point","coordinates":[-0.378305800000021,39.4512292]}},{"type":"Feature","properties":{"Name":"Colegio Martí Sorolla II","description":"http://www.ceice.gva.es/es/web/centros-docentes/consulta-general?viewUrl162652993=/abc/i_guiadecentros/es/centro.asp&codi=46016762"},"geometry":{"type":"Point","coordinates":[-0.377279,39.4540985]}},{"type":"Feature","properties":{"Name":"Centro Privado de Enseñanza Nuestra Señora del Rosario","description":"http://www.ceice.gva.es/es/web/centros-docentes/e.s.o.?viewUrl162653178=/abc/i_guiadecentros/es/centro.asp&codi=46009150"},"geometry":{"type":"Point","coordinates":[-0.365050099999962,39.4283085]}},{"type":"Feature","properties":{"Name":"Àrea 5 - Secundària/Batxillerat","description":"Cauce viejo del río/Eduardo Boscà/ Cardenal Benlloch/Clariano/Palancia/Avda. Cataluña/Límite de Alboraia/Alfahuir/Cauce viejo del río. Inclou edifici de Policia Autonòmica i Palau de la Música."},